{"type":"FeatureCollection","features":[{"type":"Feature","geometry":{"type":"Point","coordinates":[-147.827191157291,64.8483001941595]},"properties":{"id":1,"name":"College","st":"AK"}},{"type":"Feature","geometry":{"type":"Point","coordinates":[-147.726381630068,64.8380906970413]},"properties":{"id":2,"name":"Fairbanks","st":"AK"}},{"type":"Feature","geometry":{"type":"Point","coordinates":[-114.316064124295,48.1978001793607]},"properties":{"id":3,"name":"Kalispell","st":"MT"}},{"type":"Feature","geometry":{"type":"Point","coordinates":[-116.937927098258,47.7155546801828]},"properties":{"id":4,"name":"Post Falls","st":"ID"}},{"type":"Feature","geometry":{"type":"Point","coordinates":[-117.277809137743,47.6565456842016]},"properties":{"id":5,"name":"Dishman","st":"WA"}},{"type":"Feature","geometry":{"type":"Point","coordinates":[-117.241064131049,47.6469906478974]},"properties":{"id":6,"name":"Opportunity","st":"WA"}},{"type":"Feature","geometry":{"type":"Point","coordinates":[-117.410273097117,47.6733456624919]},"properties":{"id":7,"name":"Spokane","st":"WA"}},{"type":"Feature","geometry":{"type":"Point","coordinates":[-116.779909112394,47.6928456558766]},"properties":{"id":8,"name":"Coeur d'Alene","st":"ID"}},{"type":"Feature","geometry":{"type":"Point","coordinates":[-149.762100141286,61.1919001825648]},"properties":{"id":9,"name":"Anchorage","st":"AK"}},{"type":"Feature","geometry":{"type":"Point","coordinates":[-155.083145668272,19.7024816380696]},"properties":{"id":10,"name":"Hilo","st":"HI"}},{"type":"Feature","geometry":{"type":"Point","coordinates":[-156.464627152667,20.8785456393975]},"properties":{"id":11,"name":"Kahului","st":"HI"}},{"type":"Feature","geometry":{"type":"Point","coordinates":[-156.454409163626,20.7559271484035]},"properties":{"id":12,"name":"Kihei","st":"HI"}},{"type":"Feature","geometry":{"type":"Point","coordinates":[-156.499354661726,20.8887181300493]},"properties":{"id":13,"name":"Wailuku","st":"HI"}},{"type":"Feature","geometry":{"type":"Point","coordinates":[-158.008981671498,21.3157001538617]},"properties":{"id":14,"name":"Ewa Beach","st":"HI"}},{"type":"Feature","geometry":{"type":"Point","coordinates":[-157.964154644043,21.4051631405148]},"properties":{"id":15,"name":"Pearl City","st":"HI"}},{"type":"Feature","geometry":{"type":"Point","coordinates":[-158.007963639844,21.3893361533876]},"properties":{"id":16,"name":"Waipahu","st":"HI"}},{"type":"Feature","geometry":{"type":"Point","coordinates":[-157.995245653786,21.4148816463277]},"properties":{"id":17,"name":"Waipio","st":"HI"}},{"type":"Feature","geometry":{"type":"Point","coordinates":[-158.012854654206,21.4479361217668]},"properties":{"id":18,"name":"Mililani Town","st":"HI"}},{"type":"Feature","geometry":{"type":"Point","coordinates":[-158.0605001674,21.4944816396036]},"properties":{"id":19,"name":"Schofield Barracks","st":"HI"}},{"type":"Feature","geometry":{"type":"Point","coordinates":[-158.020191175749,21.4994001278324]},"properties":{"id":20,"name":"Wahiawa","st":"HI"}},{"type":"Feature","geometry":{"type":"Point","coordinates":[-158.087981652169,21.3496911551494]},"properties":{"id":21,"name":"Makakilo City","st":"HI"}},{"type":"Feature","geometry":{"type":"Point","coordinates":[-158.150054650356,21.3902911200288]},"properties":{"id":22,"name":"Nanakuli","st":"HI"}},{"type":"Feature","geometry":{"type":"Point","coordinates":[-158.176463655262,21.4445456384417]},"properties":{"id":23,"name":"Waianae","st":"HI"}},{"type":"Feature","geometry":{"type":"Point","coordinates":[-157.920018168073,21.3744636333767]},"properties":{"id":24,"name":"Halawa","st":"HI"}},{"type":"Feature","geometry":{"type":"Point","coordinates":[-157.746136146988,21.4404086568483]},"properties":{"id":25,"name":"Kaneohe Station","st":"HI"}},{"type":"Feature","geometry":{"type":"Point","coordinates":[-157.94568167376,21.3959811243959]},"properties":{"id":26,"name":"Waimalu","st":"HI"}},{"type":"Feature","geometry":{"type":"Point","coordinates":[-157.823436161324,21.3057816299714]},"properties":{"id":27,"name":"Honolulu","st":"HI"}},{"type":"Feature","geometry":{"type":"Point","coordinates":[-157.736772636839,21.3942001517802]},"properties":{"id":28,"name":"Kailua","st":"HI"}},{"type":"Feature","geometry":{"type":"Point","coordinates":[-157.796336147036,21.4060271520053]},"properties":{"id":29,"name":"Kaneohe","st":"HI"}},{"type":"Feature","geometry":{"type":"Point","coordinates":[-134.511581638762,58.3514181577899]},"properties":{"id":30,"name":"Juneau","st":"AK"}},{"type":"Feature","geometry":{"type":"Point","coordinates":[-122.676627104696,47.6594091688048]},"properties":{"id":31,"name":"Silverdale","st":"WA"}},{"type":"Feature","geometry":{"type":"Point","coordinates":[-122.474973125139,48.7501816739151]},"properties":{"id":32,"name":"Bellingham","st":"WA"}},{"type":"Feature","geometry":{"type":"Point","coordinates":[-123.440709605467,48.1129726584791]},"properties":{"id":33,"name":"Port Angeles","st":"WA"}},{"type":"Feature","geometry":{"type":"Point","coordinates":[-122.623736622154,48.5020091508636]},"properties":{"id":34,"name":"Anacortes","st":"WA"}},{"type":"Feature","geometry":{"type":"Point","coordinates":[-122.325981636656,48.42013615299]},"properties":{"id":35,"name":"Mount Vernon","st":"WA"}},{"type":"Feature","geometry":{"type":"Point","coordinates":[-122.65855512799,48.2951361772506]},"properties":{"id":36,"name":"Oak Harbor","st":"WA"}},{"type":"Feature","geometry":{"type":"Point","coordinates":[-114.463718134979,42.5614181403246]},"properties":{"id":37,"name":"Twin Falls","st":"ID"}},{"type":"Feature","geometry":{"type":"Point","coordinates":[-121.308081607331,44.056436171074]},"properties":{"id":38,"name":"Bend","st":"OR"}},{"type":"Feature","geometry":{"type":"Point","coordinates":[-121.183491117092,44.2689816656842]},"properties":{"id":39,"name":"Redmond","st":"OR"}},{"type":"Feature","geometry":{"type":"Point","coordinates":[-121.726436628765,42.2026271702393]},"properties":{"id":40,"name":"Altamont","st":"OR"}},{"type":"Feature","geometry":{"type":"Point","coordinates":[-121.777581604957,42.2234456594783]},"properties":{"id":41,"name":"Klamath Falls","st":"OR"}},{"type":"Feature","geometry":{"type":"Point","coordinates":[-116.237654610102,43.6137361398069]},"properties":{"id":42,"name":"Boise City","st":"ID"}},{"type":"Feature","geometry":{"type":"Point","coordinates":[-116.266136102004,43.6455636573213]},"properties":{"id":43,"name":"Garden City","st":"ID"}},{"type":"Feature","geometry":{"type":"Point","coordinates":[-115.694472615037,43.1368091650124]},"properties":{"id":44,"name":"Mountain Home","st":"ID"}},{"type":"Feature","geometry":{"type":"Point","coordinates":[-122.439427602504,45.5036906758823]},"properties":{"id":45,"name":"Gresham","st":"OR"}},{"type":"Feature","geometry":{"type":"Point","coordinates":[-122.391572621887,45.5295546575445]},"properties":{"id":46,"name":"Troutdale","st":"OR"}},{"type":"Feature","geometry":{"type":"Point","coordinates":[-119.291718102409,45.8409906713927]},"properties":{"id":47,"name":"Hermiston","st":"OR"}},{"type":"Feature","geometry":{"type":"Point","coordinates":[-119.159272625455,46.2034726722573]},"properties":{"id":48,"name":"Kennewick","st":"WA"}},{"type":"Feature","geometry":{"type":"Point","coordinates":[-119.108536135713,46.2385091790661]},"properties":{"id":49,"name":"Pasco","st":"WA"}},{"type":"Feature","geometry":{"type":"Point","coordinates":[-122.700754613082,42.1914001409919]},"properties":{"id":50,"name":"Ashland","st":"OR"}},{"type":"Feature","geometry":{"type":"Point","coordinates":[-122.912091632187,42.3748456486762]},"properties":{"id":51,"name":"Central Point","st":"OR"}},{"type":"Feature","geometry":{"type":"Point","coordinates":[-122.861872608568,42.3320001530661]},"properties":{"id":52,"name":"Medford","st":"OR"}},{"type":"Feature","geometry":{"type":"Point","coordinates":[-124.237100125035,43.3764546739109]},"properties":{"id":53,"name":"Coos Bay","st":"OR"}},{"type":"Feature","geometry":{"type":"Point","coordinates":[-122.907800130905,44.5331361534491]},"properties":{"id":54,"name":"Lebanon","st":"OR"}},{"type":"Feature","geometry":{"type":"Point","coordinates":[-123.356045637348,43.2179636796365]},"properties":{"id":55,"name":"Roseburg","st":"OR"}},{"type":"Feature","geometry":{"type":"Point","coordinates":[-123.32824562223,42.4389726514386]},"properties":{"id":56,"name":"Grants Pass","st":"OR"}},{"type":"Feature","geometry":{"type":"Point","coordinates":[-123.110345637447,44.0576636701506]},"properties":{"id":57,"name":"Eugene","st":"OR"}},{"type":"Feature","geometry":{"type":"Point","coordinates":[-122.991055105917,44.0530636706438]},"properties":{"id":58,"name":"Springfield","st":"OR"}},{"type":"Feature","geometry":{"type":"Point","coordinates":[-123.09599112471,44.6301906690833]},"properties":{"id":59,"name":"Albany","st":"OR"}},{"type":"Feature","geometry":{"type":"Point","coordinates":[-123.276000109529,44.5707816785746]},"properties":{"id":60,"name":"Corvallis","st":"OR"}},{"type":"Feature","geometry":{"type":"Point","coordinates":[-123.818672630869,46.9758361711897]},"properties":{"id":61,"name":"Aberdeen","st":"WA"}},{"type":"Feature","geometry":{"type":"Point","coordinates":[-122.564591630531,47.1143726460886]},"properties":{"id":62,"name":"Fort Lewis","st":"WA"}},{"type":"Feature","geometry":{"type":"Point","coordinates":[-122.961427121219,46.7204816462838]},"properties":{"id":63,"name":"Centralia","st":"WA"}},{"type":"Feature","geometry":{"type":"Point","coordinates":[-122.807172638866,47.0263636514067]},"properties":{"id":64,"name":"Lacey","st":"WA"}},{"type":"Feature","geometry":{"type":"Point","coordinates":[-122.89307263961,47.0424181721053]},"properties":{"id":65,"name":"Olympia","st":"WA"}},{"type":"Feature","geometry":{"type":"Point","coordinates":[-122.91107264311,47.0077636769292]},"properties":{"id":66,"name":"Tumwater","st":"WA"}},{"type":"Feature","geometry":{"type":"Point","coordinates":[-122.652627141657,47.5700181553579]},"properties":{"id":67,"name":"Bremerton","st":"WA"}},{"type":"Feature","geometry":{"type":"Point","coordinates":[-123.316345608122,44.9211456643591]},"properties":{"id":68,"name":"Dallas","st":"OR"}},{"type":"Feature","geometry":{"type":"Point","coordinates":[-122.292227618285,47.184872670203]},"properties":{"id":69,"name":"Puyallup","st":"WA"}},{"type":"Feature","geometry":{"type":"Point","coordinates":[-122.290509127903,47.1210816811596]},"properties":{"id":70,"name":"South Hill","st":"WA"}},{"type":"Feature","geometry":{"type":"Point","coordinates":[-122.043300105043,47.5355726697064]},"properties":{"id":71,"name":"Issaquah","st":"WA"}},{"type":"Feature","geometry":{"type":"Point","coordinates":[-122.042300139537,47.6088456811711]},"properties":{"id":72,"name":"Sammamish","st":"WA"}},{"type":"Feature","geometry":{"type":"Point","coordinates":[-122.100209140161,47.3657816739287]},"properties":{"id":73,"name":"Covington","st":"WA"}},{"type":"Feature","geometry":{"type":"Point","coordinates":[-122.04469161478,47.3661636439343]},"properties":{"id":74,"name":"Maple Valley","st":"WA"}},{"type":"Feature","geometry":{"type":"Point","coordinates":[-122.366809135107,47.0448091478229]},"properties":{"id":75,"name":"Elk Plain","st":"WA"}},{"type":"Feature","geometry":{"type":"Point","coordinates":[-122.526009621184,47.1639181436952]},"properties":{"id":76,"name":"Lakewood","st":"WA"}},{"type":"Feature","geometry":{"type":"Point","coordinates":[-122.541609116366,47.2195456477987]},"properties":{"id":77,"name":"University Place","st":"WA"}},{"type":"Feature","geometry":{"type":"Point","coordinates":[-122.339172631125,47.3129636641169]},"properties":{"id":78,"name":"Federal Way","st":"WA"}},{"type":"Feature","geometry":{"type":"Point","coordinates":[-122.437745619063,47.1412181524635]},"properties":{"id":79,"name":"Parkland","st":"WA"}},{"type":"Feature","geometry":{"type":"Point","coordinates":[-122.459391113326,47.2413726777196]},"properties":{"id":80,"name":"Tacoma","st":"WA"}},{"type":"Feature","geometry":{"type":"Point","coordinates":[-122.277000102611,47.3328181536403]},"properties":{"id":81,"name":"Lakeland North","st":"WA"}},{"type":"Feature","geometry":{"type":"Point","coordinates":[-122.283836641401,47.2772636634197]},"properties":{"id":82,"name":"Lakeland South","st":"WA"}},{"type":"Feature","geometry":{"type":"Point","coordinates":[-122.424018134901,47.0978906569955]},"properties":{"id":83,"name":"Spanaway","st":"WA"}},{"type":"Feature","geometry":{"type":"Point","coordinates":[-122.468209142334,47.4162001744732]},"properties":{"id":84,"name":"Vashon","st":"WA"}},{"type":"Feature","geometry":{"type":"Point","coordinates":[-122.317981621225,47.394118178741]},"properties":{"id":85,"name":"Des Moines","st":"WA"}},{"type":"Feature","geometry":{"type":"Point","coordinates":[-122.293072606204,47.4414091541695]},"properties":{"id":86,"name":"SeaTac","st":"WA"}},{"type":"Feature","geometry":{"type":"Point","coordinates":[-122.345491121013,47.4682181536029]},"properties":{"id":87,"name":"Burien","st":"WA"}},{"type":"Feature","geometry":{"type":"Point","coordinates":[-122.333145613989,47.6263546517387]},"properties":{"id":88,"name":"Seattle","st":"WA"}},{"type":"Feature","geometry":{"type":"Point","coordinates":[-122.347381614453,47.5073726600607]},"properties":{"id":89,"name":"White Center","st":"WA"}},{"type":"Feature","geometry":{"type":"Point","coordinates":[-122.31131812617,47.507572678138]},"properties":{"id":90,"name":"Riverton-Boulevard Park","st":"WA"}},{"type":"Feature","geometry":{"type":"Point","coordinates":[-122.275436131917,47.4782456571656]},"properties":{"id":91,"name":"Tukwila","st":"WA"}},{"type":"Feature","geometry":{"type":"Point","coordinates":[-122.169363610825,47.4488726799066]},"properties":{"id":92,"name":"Cascade-Fairwood","st":"WA"}},{"type":"Feature","geometry":{"type":"Point","coordinates":[-122.183154617898,47.409890676032]},"properties":{"id":93,"name":"East Hill-Meridian","st":"WA"}},{"type":"Feature","geometry":{"type":"Point","coordinates":[-122.227018103535,47.3826906735185]},"properties":{"id":94,"name":"Kent","st":"WA"}},{"type":"Feature","geometry":{"type":"Point","coordinates":[-122.195163611679,47.4866181516302]},"properties":{"id":95,"name":"Renton","st":"WA"}},{"type":"Feature","geometry":{"type":"Point","coordinates":[-122.159246109534,47.5975546711152]},"properties":{"id":96,"name":"Bellevue","st":"WA"}},{"type":"Feature","geometry":{"type":"Point","coordinates":[-122.236555115318,47.4945726686725]},"properties":{"id":97,"name":"Bryn Mawr-Skyway","st":"WA"}},{"type":"Feature","geometry":{"type":"Point","coordinates":[-122.232336128394,47.5692726561391]},"properties":{"id":98,"name":"Mercer Island","st":"WA"}},{"type":"Feature","geometry":{"type":"Point","coordinates":[-122.118609637713,47.4810181449911]},"properties":{"id":99,"name":"East Renton Highlands","st":"WA"}},{"type":"Feature","geometry":{"type":"Point","coordinates":[-122.21478161781,47.3023181650546]},"properties":{"id":100,"name":"Auburn","st":"WA"}},{"type":"Feature","geometry":{"type":"Point","coordinates":[-122.18781863984,47.3260001805239]},"properties":{"id":101,"name":"Lea Hill","st":"WA"}},{"type":"Feature","geometry":{"type":"Point","coordinates":[-122.148227132389,47.1453271606651]},"properties":{"id":102,"name":"Prairie Ridge","st":"WA"}},{"type":"Feature","geometry":{"type":"Point","coordinates":[-121.994045622291,47.2024001648172]},"properties":{"id":103,"name":"Enumclaw","st":"WA"}},{"type":"Feature","geometry":{"type":"Point","coordinates":[-122.569309101633,45.6821726548466]},"properties":{"id":104,"name":"Five Corners","st":"WA"}},{"type":"Feature","geometry":{"type":"Point","coordinates":[-122.529263609342,45.6838726628088]},"properties":{"id":105,"name":"Orchards","st":"WA"}},{"type":"Feature","geometry":{"type":"Point","coordinates":[-122.603009129692,45.6337456766441]},"properties":{"id":106,"name":"Vancouver","st":"WA"}},{"type":"Feature","geometry":{"type":"Point","coordinates":[-122.817000124351,45.8593546620034]},"properties":{"id":107,"name":"St. Helens","st":"OR"}},{"type":"Feature","geometry":{"type":"Point","coordinates":[-122.90602710906,46.14203615199]},"properties":{"id":108,"name":"Kelso","st":"WA"}},{"type":"Feature","geometry":{"type":"Point","coordinates":[-122.955636129577,46.1427361528199]},"properties":{"id":109,"name":"Longview","st":"WA"}},{"type":"Feature","geometry":{"type":"Point","coordinates":[-122.661300141949,45.7049361689891]},"properties":{"id":110,"name":"Salmon Creek","st":"WA"}},{"type":"Feature","geometry":{"type":"Point","coordinates":[-122.412100137898,45.5910091607065]},"properties":{"id":111,"name":"Camas","st":"WA"}},{"type":"Feature","geometry":{"type":"Point","coordinates":[-123.108755108682,45.5213726485579]},"properties":{"id":112,"name":"Forest Grove","st":"OR"}},{"type":"Feature","geometry":{"type":"Point","coordinates":[-122.942864111581,45.5237726573499]},"properties":{"id":113,"name":"Hillsboro","st":"OR"}},{"type":"Feature","geometry":{"type":"Point","coordinates":[-123.021882116774,45.0004906501965]},"properties":{"id":114,"name":"Keizer","st":"OR"}},{"type":"Feature","geometry":{"type":"Point","coordinates":[-123.197281611113,45.2117636468661]},"properties":{"id":115,"name":"McMinnville","st":"OR"}},{"type":"Feature","geometry":{"type":"Point","coordinates":[-122.967363641102,45.3049546707649]},"properties":{"id":116,"name":"Newberg","st":"OR"}},{"type":"Feature","geometry":{"type":"Point","coordinates":[-122.858436127329,45.147254674098]},"properties":{"id":117,"name":"Woodburn","st":"OR"}},{"type":"Feature","geometry":{"type":"Point","coordinates":[-122.972381618031,44.9288456734878]},"properties":{"id":118,"name":"Four Corners","st":"OR"}},{"type":"Feature","geometry":{"type":"Point","coordinates":[-122.972354602062,44.9809816653645]},"properties":{"id":119,"name":"Hayesville","st":"OR"}},{"type":"Feature","geometry":{"type":"Point","coordinates":[-123.029154615881,44.9311091454862]},"properties":{"id":120,"name":"Salem","st":"OR"}},{"type":"Feature","geometry":{"type":"Point","coordinates":[-122.766418112671,45.3068091567884]},"properties":{"id":121,"name":"Wilsonville","st":"OR"}},{"type":"Feature","geometry":{"type":"Point","coordinates":[-122.87200913343,45.490236182053]},"properties":{"id":122,"name":"Aloha","st":"OR"}},{"type":"Feature","geometry":{"type":"Point","coordinates":[-122.804136610052,45.5306906603185]},"properties":{"id":123,"name":"Cedar Mill","st":"OR"}},{"type":"Feature","geometry":{"type":"Point","coordinates":[-122.809954617663,45.4796816797685]},"properties":{"id":124,"name":"Beaverton","st":"OR"}},{"type":"Feature","geometry":{"type":"Point","coordinates":[-122.843264142168,45.3570271813578]},"properties":{"id":125,"name":"Sherwood","st":"OR"}},{"type":"Feature","geometry":{"type":"Point","coordinates":[-122.77897262922,45.4276361435176]},"properties":{"id":126,"name":"Tigard","st":"OR"}},{"type":"Feature","geometry":{"type":"Point","coordinates":[-122.770063603434,45.3748091422585]},"properties":{"id":127,"name":"Tualatin","st":"OR"}},{"type":"Feature","geometry":{"type":"Point","coordinates":[-122.69724611701,45.4131091698251]},"properties":{"id":128,"name":"Lake Oswego","st":"OR"}},{"type":"Feature","geometry":{"type":"Point","coordinates":[-122.623354610521,45.4454906604035]},"properties":{"id":129,"name":"Milwaukie","st":"OR"}},{"type":"Feature","geometry":{"type":"Point","coordinates":[-122.640154630438,45.5230361495786]},"properties":{"id":130,"name":"Portland","st":"OR"}},{"type":"Feature","geometry":{"type":"Point","coordinates":[-122.592727118216,45.3856456679507]},"properties":{"id":131,"name":"Gladstone","st":"OR"}},{"type":"Feature","geometry":{"type":"Point","coordinates":[-122.638900614917,45.416645680916]},"properties":{"id":132,"name":"Oak Grove","st":"OR"}},{"type":"Feature","geometry":{"type":"Point","coordinates":[-122.596627116893,45.4116091799402]},"properties":{"id":133,"name":"Oatfield","st":"OR"}},{"type":"Feature","geometry":{"type":"Point","coordinates":[-122.69066412776,45.2660001823843]},"properties":{"id":134,"name":"Canby","st":"OR"}},{"type":"Feature","geometry":{"type":"Point","coordinates":[-122.597881631939,45.3473906808752]},"properties":{"id":135,"name":"Oregon City","st":"OR"}},{"type":"Feature","geometry":{"type":"Point","coordinates":[-122.641027133851,45.36520015727]},"properties":{"id":136,"name":"West Linn","st":"OR"}},{"type":"Feature","geometry":{"type":"Point","coordinates":[-121.182773133367,45.6012181582999]},"properties":{"id":137,"name":"City of The Dalles","st":"OR"}},{"type":"Feature","geometry":{"type":"Point","coordinates":[-119.288464114251,47.1211091550266]},"properties":{"id":138,"name":"Moses Lake","st":"WA"}},{"type":"Feature","geometry":{"type":"Point","coordinates":[-120.012236124795,46.320800154362]},"properties":{"id":139,"name":"Sunnyside","st":"WA"}},{"type":"Feature","geometry":{"type":"Point","coordinates":[-120.603009101592,46.5987271667804]},"properties":{"id":140,"name":"West Valley","st":"WA"}},{"type":"Feature","geometry":{"type":"Point","coordinates":[-120.529654625949,46.5967271525158]},"properties":{"id":141,"name":"Yakima","st":"WA"}},{"type":"Feature","geometry":{"type":"Point","coordinates":[-120.275336115592,47.4165456791644]},"properties":{"id":142,"name":"East Wenatchee Bench","st":"WA"}},{"type":"Feature","geometry":{"type":"Point","coordinates":[-120.54511812549,46.9970636464036]},"properties":{"id":143,"name":"Ellensburg","st":"WA"}},{"type":"Feature","geometry":{"type":"Point","coordinates":[-120.325281607726,47.423318153892]},"properties":{"id":144,"name":"Wenatchee","st":"WA"}},{"type":"Feature","geometry":{"type":"Point","coordinates":[-119.281372609649,46.2796546667141]},"properties":{"id":145,"name":"Richland","st":"WA"}},{"type":"Feature","geometry":{"type":"Point","coordinates":[-122.486418113732,48.1936091658288]},"properties":{"id":146,"name":"Camano","st":"WA"}},{"type":"Feature","geometry":{"type":"Point","coordinates":[-122.101818109719,47.995927158155]},"properties":{"id":147,"name":"West Lake Stevens","st":"WA"}},{"type":"Feature","geometry":{"type":"Point","coordinates":[-122.200527134926,47.9634361467522]},"properties":{"id":148,"name":"Everett","st":"WA"}},{"type":"Feature","geometry":{"type":"Point","coordinates":[-122.138955118542,48.1811001476685]},"properties":{"id":149,"name":"Arlington","st":"WA"}},{"type":"Feature","geometry":{"type":"Point","coordinates":[-122.163336135791,48.0627456840894]},"properties":{"id":150,"name":"Marysville","st":"WA"}},{"type":"Feature","geometry":{"type":"Point","coordinates":[-122.155136102283,48.0967726511666]},"properties":{"id":151,"name":"North Marysville","st":"WA"}},{"type":"Feature","geometry":{"type":"Point","coordinates":[-122.535081616953,47.6552636536617]},"properties":{"id":152,"name":"Bainbridge Island","st":"WA"}},{"type":"Feature","geometry":{"type":"Point","coordinates":[-122.360136107453,47.8078636680691]},"properties":{"id":153,"name":"Edmonds","st":"WA"}},{"type":"Feature","geometry":{"type":"Point","coordinates":[-122.339654630982,47.7565181742753]},"properties":{"id":154,"name":"Shoreline","st":"WA"}},{"type":"Feature","geometry":{"type":"Point","coordinates":[-122.289681623354,47.7567181507255]},"properties":{"id":155,"name":"Lake Forest Park","st":"WA"}},{"type":"Feature","geometry":{"type":"Point","coordinates":[-122.306636620858,47.7909726513741]},"properties":{"id":156,"name":"Mountlake Terrace","st":"WA"}},{"type":"Feature","geometry":{"type":"Point","coordinates":[-122.305391138886,47.8278636442064]},"properties":{"id":157,"name":"Lynnwood","st":"WA"}},{"type":"Feature","geometry":{"type":"Point","coordinates":[-122.302936140733,47.9161456708486]},"properties":{"id":158,"name":"Mukilteo","st":"WA"}},{"type":"Feature","geometry":{"type":"Point","coordinates":[-122.294546121272,47.86022715189]},"properties":{"id":159,"name":"Picnic Point-North Lynnwood","st":"WA"}},{"type":"Feature","geometry":{"type":"Point","coordinates":[-122.204418142156,47.7716726760667]},"properties":{"id":160,"name":"Bothell","st":"WA"}},{"type":"Feature","geometry":{"type":"Point","coordinates":[-122.219936131533,47.7226181697653]},"properties":{"id":161,"name":"Inglewood-Finn Hill","st":"WA"}},{"type":"Feature","geometry":{"type":"Point","coordinates":[-122.174182110829,47.7263181503649]},"properties":{"id":162,"name":"Kingsgate","st":"WA"}},{"type":"Feature","geometry":{"type":"Point","coordinates":[-122.19172713044,47.6858181737107]},"properties":{"id":163,"name":"Kirkland","st":"WA"}},{"type":"Feature","geometry":{"type":"Point","coordinates":[-122.247363625991,47.7528726835118]},"properties":{"id":164,"name":"Kenmore","st":"WA"}},{"type":"Feature","geometry":{"type":"Point","coordinates":[-122.082673111997,47.7448906509754]},"properties":{"id":165,"name":"Cottage Lake","st":"WA"}},{"type":"Feature","geometry":{"type":"Point","coordinates":[-122.123872631584,47.6694181483208]},"properties":{"id":166,"name":"Redmond","st":"WA"}},{"type":"Feature","geometry":{"type":"Point","coordinates":[-122.049200617509,47.6786726787978]},"properties":{"id":167,"name":"Union Hill-Novelty Hill","st":"WA"}},{"type":"Feature","geometry":{"type":"Point","coordinates":[-121.988364109846,47.8577181634255]},"properties":{"id":168,"name":"Monroe","st":"WA"}},{"type":"Feature","geometry":{"type":"Point","coordinates":[-122.258618129105,47.802381674177]},"properties":{"id":169,"name":"Alderwood Manor","st":"WA"}},{"type":"Feature","geometry":{"type":"Point","coordinates":[-122.204409109081,47.8617636487164]},"properties":{"id":170,"name":"Mill Creek","st":"WA"}},{"type":"Feature","geometry":{"type":"Point","coordinates":[-122.198281604195,47.8230816511442]},"properties":{"id":171,"name":"North Creek","st":"WA"}},{"type":"Feature","geometry":{"type":"Point","coordinates":[-122.239300628801,47.8508001604569]},"properties":{"id":172,"name":"Martha Lake","st":"WA"}},{"type":"Feature","geometry":{"type":"Point","coordinates":[-122.250518624974,47.8944636696439]},"properties":{"id":173,"name":"Paine Field-Lake Stickney","st":"WA"}},{"type":"Feature","geometry":{"type":"Point","coordinates":[-122.178700105005,47.8810091758146]},"properties":{"id":174,"name":"Seattle Hill-Silver Firs","st":"WA"}},{"type":"Feature","geometry":{"type":"Point","coordinates":[-114.011591112279,46.8626361797062]},"properties":{"id":175,"name":"Missoula","st":"MT"}},{"type":"Feature","geometry":{"type":"Point","coordinates":[-116.96867260331,44.0268361597685]},"properties":{"id":176,"name":"Ontario","st":"OR"}},{"type":"Feature","geometry":{"type":"Point","coordinates":[-116.680391606209,43.6582361449903]},"properties":{"id":177,"name":"Caldwell","st":"ID"}},{"type":"Feature","geometry":{"type":"Point","coordinates":[-116.346363623379,43.6930906582437]},"properties":{"id":178,"name":"Eagle","st":"ID"}},{"type":"Feature","geometry":{"type":"Point","coordinates":[-116.398963632218,43.6142271727392]},"properties":{"id":179,"name":"Meridian","st":"ID"}},{"type":"Feature","geometry":{"type":"Point","coordinates":[-116.563554615884,43.5748091669205]},"properties":{"id":180,"name":"Nampa","st":"ID"}},{"type":"Feature","geometry":{"type":"Point","coordinates":[-118.798118611417,45.67030914768]},"properties":{"id":181,"name":"Pendleton","st":"OR"}},{"type":"Feature","geometry":{"type":"Point","coordinates":[-118.33016360254,46.0650906754197]},"properties":{"id":182,"name":"Walla Walla","st":"WA"}},{"type":"Feature","geometry":{"type":"Point","coordinates":[-117.001027119546,46.4002456695765]},"properties":{"id":183,"name":"Lewiston","st":"ID"}},{"type":"Feature","geometry":{"type":"Point","coordinates":[-116.997191101677,46.7317456819976]},"properties":{"id":184,"name":"Moscow","st":"ID"}},{"type":"Feature","geometry":{"type":"Point","coordinates":[-118.093236133257,45.3271906450336]},"properties":{"id":185,"name":"La Grande","st":"OR"}},{"type":"Feature","geometry":{"type":"Point","coordinates":[-117.171791106487,46.7326181437836]},"properties":{"id":186,"name":"Pullman","st":"WA"}},{"type":"Feature","geometry":{"type":"Point","coordinates":[-120.989409101792,38.6765176437485]},"properties":{"id":187,"name":"Cameron Park","st":"CA"}},{"type":"Feature","geometry":{"type":"Point","coordinates":[-121.07846410152,38.6882266728538]},"properties":{"id":188,"name":"El Dorado Hills","st":"CA"}},{"type":"Feature","geometry":{"type":"Point","coordinates":[-121.157836103327,38.6721271532912]},"properties":{"id":189,"name":"Folsom","st":"CA"}},{"type":"Feature","geometry":{"type":"Point","coordinates":[-121.074400633335,38.8986721649743]},"properties":{"id":190,"name":"Auburn","st":"CA"}},{"type":"Feature","geometry":{"type":"Point","coordinates":[-121.058418127469,39.2192181384811]},"properties":{"id":191,"name":"Grass Valley","st":"CA"}},{"type":"Feature","geometry":{"type":"Point","coordinates":[-121.083772635407,38.9338816738911]},"properties":{"id":192,"name":"North Auburn","st":"CA"}},{"type":"Feature","geometry":{"type":"Point","coordinates":[-113.578154602936,37.0952811651593]},"properties":{"id":193,"name":"St. George","st":"UT"}},{"type":"Feature","geometry":{"type":"Point","coordinates":[-115.76552711174,40.8364001758608]},"properties":{"id":194,"name":"Elko","st":"NV"}},{"type":"Feature","geometry":{"type":"Point","coordinates":[-115.59276361006,40.7465911433645]},"properties":{"id":195,"name":"Spring Creek","st":"NV"}},{"type":"Feature","geometry":{"type":"Point","coordinates":[-124.082818626712,40.8728091688353]},"properties":{"id":196,"name":"Arcata","st":"CA"}},{"type":"Feature","geometry":{"type":"Point","coordinates":[-124.162754633707,40.7900181691598]},"properties":{"id":197,"name":"Eureka","st":"CA"}},{"type":"Feature","geometry":{"type":"Point","coordinates":[-124.14610014203,40.5867456458192]},"properties":{"id":198,"name":"Fortuna","st":"CA"}},{"type":"Feature","geometry":{"type":"Point","coordinates":[-124.102545612516,40.947391143555]},"properties":{"id":199,"name":"McKinleyville","st":"CA"}},{"type":"Feature","geometry":{"type":"Point","coordinates":[-122.237954617452,40.1766361562822]},"properties":{"id":200,"name":"Red Bluff","st":"CA"}},{"type":"Feature","geometry":{"type":"Point","coordinates":[-122.370327122151,40.5766086630591]},"properties":{"id":201,"name":"Redding","st":"CA"}},{"type":"Feature","geometry":{"type":"Point","coordinates":[-121.244718128309,36.3231546491434]},"properties":{"id":202,"name":"Greenfield","st":"CA"}},{"type":"Feature","geometry":{"type":"Point","coordinates":[-121.127909111377,36.2112546710947]},"properties":{"id":203,"name":"King City","st":"CA"}},{"type":"Feature","geometry":{"type":"Point","coordinates":[-121.329827630971,36.4332001411687]},"properties":{"id":204,"name":"Soledad","st":"CA"}},{"type":"Feature","geometry":{"type":"Point","coordinates":[-119.247909106608,35.4958906629066]},"properties":{"id":205,"name":"Shafter","st":"CA"}},{"type":"Feature","geometry":{"type":"Point","coordinates":[-119.34316412558,35.5935906479074]},"properties":{"id":206,"name":"Wasco","st":"CA"}},{"type":"Feature","geometry":{"type":"Point","coordinates":[-119.182500114933,34.1912906326463]},"properties":{"id":207,"name":"Oxnard","st":"CA"}},{"type":"Feature","geometry":{"type":"Point","coordinates":[-119.194509108714,34.1602541543666]},"properties":{"id":208,"name":"Port Hueneme","st":"CA"}},{"type":"Feature","geometry":{"type":"Point","coordinates":[-119.228045625638,34.2752456501148]},"properties":{"id":209,"name":"Ventura","st":"CA"}},{"type":"Feature","geometry":{"type":"Point","coordinates":[-119.068427120512,34.3557906611618]},"properties":{"id":210,"name":"Santa Paula","st":"CA"}},{"type":"Feature","geometry":{"type":"Point","coordinates":[-120.586800602357,35.120881660987]},"properties":{"id":211,"name":"Arroyo Grande","st":"CA"}},{"type":"Feature","geometry":{"type":"Point","coordinates":[-120.619527639253,35.1209361508232]},"properties":{"id":212,"name":"Grover Beach","st":"CA"}},{"type":"Feature","geometry":{"type":"Point","coordinates":[-120.490036102528,35.0300271645967]},"properties":{"id":213,"name":"Nipomo","st":"CA"}},{"type":"Feature","geometry":{"type":"Point","coordinates":[-120.677991112466,35.6270086525596]},"properties":{"id":214,"name":"Paso Robles","st":"CA"}},{"type":"Feature","geometry":{"type":"Point","coordinates":[-120.67248160308,35.4842816636535]},"properties":{"id":215,"name":"Atascadero","st":"CA"}},{"type":"Feature","geometry":{"type":"Point","coordinates":[-120.835609103802,35.3167911463405]},"properties":{"id":216,"name":"Baywood-Los Osos","st":"CA"}},{"type":"Feature","geometry":{"type":"Point","coordinates":[-120.853354641016,35.3790456385576]},"properties":{"id":217,"name":"Morro Bay","st":"CA"}},{"type":"Feature","geometry":{"type":"Point","coordinates":[-120.663191106813,35.2743091383164]},"properties":{"id":218,"name":"San Luis Obispo","st":"CA"}},{"type":"Feature","geometry":{"type":"Point","coordinates":[-120.358300117375,36.1407361645606]},"properties":{"id":219,"name":"Coalinga","st":"CA"}},{"type":"Feature","geometry":{"type":"Point","coordinates":[-120.120609124352,36.0250816328218]},"properties":{"id":220,"name":"Avenal","st":"CA"}},{"type":"Feature","geometry":{"type":"Point","coordinates":[-119.564482109182,36.0960181584052]},"properties":{"id":221,"name":"Corcoran","st":"CA"}},{"type":"Feature","geometry":{"type":"Point","coordinates":[-119.646891138852,36.333272649959]},"properties":{"id":222,"name":"Hanford","st":"CA"}},{"type":"Feature","geometry":{"type":"Point","coordinates":[-119.786445603778,36.3038721572059]},"properties":{"id":223,"name":"Lemoore","st":"CA"}},{"type":"Feature","geometry":{"type":"Point","coordinates":[-119.246318119946,35.7696456437376]},"properties":{"id":224,"name":"Delano","st":"CA"}},{"type":"Feature","geometry":{"type":"Point","coordinates":[-119.088809607807,36.2071726372352]},"properties":{"id":225,"name":"Lindsay","st":"CA"}},{"type":"Feature","geometry":{"type":"Point","coordinates":[-119.342400102315,36.2066001401245]},"properties":{"id":226,"name":"Tulare","st":"CA"}},{"type":"Feature","geometry":{"type":"Point","coordinates":[-119.307346112136,36.3241001664395]},"properties":{"id":227,"name":"Visalia","st":"CA"}},{"type":"Feature","geometry":{"type":"Point","coordinates":[-120.460318619627,34.6461816512494]},"properties":{"id":228,"name":"Lompoc","st":"CA"}},{"type":"Feature","geometry":{"type":"Point","coordinates":[-120.428064133243,34.8745546325116]},"properties":{"id":229,"name":"Orcutt","st":"CA"}},{"type":"Feature","geometry":{"type":"Point","coordinates":[-120.433372625502,34.9513721474649]},"properties":{"id":230,"name":"Santa Maria","st":"CA"}},{"type":"Feature","geometry":{"type":"Point","coordinates":[-119.813609598875,34.440491136222]},"properties":{"id":231,"name":"Goleta","st":"CA"}},{"type":"Feature","geometry":{"type":"Point","coordinates":[-119.860418616073,34.4145911471432]},"properties":{"id":232,"name":"Isla Vista","st":"CA"}},{"type":"Feature","geometry":{"type":"Point","coordinates":[-119.516445634535,34.3990456422716]},"properties":{"id":233,"name":"Carpinteria","st":"CA"}},{"type":"Feature","geometry":{"type":"Point","coordinates":[-119.631845616733,34.4336906464755]},"properties":{"id":234,"name":"Montecito","st":"CA"}},{"type":"Feature","geometry":{"type":"Point","coordinates":[-119.714191123493,34.4258001518688]},"properties":{"id":235,"name":"Santa Barbara","st":"CA"}},{"type":"Feature","geometry":{"type":"Point","coordinates":[-121.92102711874,36.6190631410149]},"properties":{"id":236,"name":"Pacific Grove","st":"CA"}},{"type":"Feature","geometry":{"type":"Point","coordinates":[-121.954746128744,36.9762546741421]},"properties":{"id":237,"name":"Capitola","st":"CA"}},{"type":"Feature","geometry":{"type":"Point","coordinates":[-121.98047261619,36.9813636478489]},"properties":{"id":238,"name":"Live Oak","st":"CA"}},{"type":"Feature","geometry":{"type":"Point","coordinates":[-122.026255109811,36.9720546691628]},"properties":{"id":239,"name":"Santa Cruz","st":"CA"}},{"type":"Feature","geometry":{"type":"Point","coordinates":[-122.013236118401,37.0513816721055]},"properties":{"id":240,"name":"Scotts Valley","st":"CA"}},{"type":"Feature","geometry":{"type":"Point","coordinates":[-121.890609135485,36.6000091400714]},"properties":{"id":241,"name":"Monterey","st":"CA"}},{"type":"Feature","geometry":{"type":"Point","coordinates":[-122.565218617478,38.0933721617227]},"properties":{"id":242,"name":"Novato","st":"CA"}},{"type":"Feature","geometry":{"type":"Point","coordinates":[-122.568127142572,37.980072639912]},"properties":{"id":243,"name":"San Anselmo","st":"CA"}},{"type":"Feature","geometry":{"type":"Point","coordinates":[-122.631272620622,38.2458456714606]},"properties":{"id":244,"name":"Petaluma","st":"CA"}},{"type":"Feature","geometry":{"type":"Point","coordinates":[-122.695381640489,38.3471726648052]},"properties":{"id":245,"name":"Rohnert Park","st":"CA"}},{"type":"Feature","geometry":{"type":"Point","coordinates":[-122.704646119836,38.4486091373471]},"properties":{"id":246,"name":"Santa Rosa","st":"CA"}},{"type":"Feature","geometry":{"type":"Point","coordinates":[-122.805200140095,38.5460361736418]},"properties":{"id":247,"name":"Windsor","st":"CA"}},{"type":"Feature","geometry":{"type":"Point","coordinates":[-122.63111814256,38.9527726632237]},"properties":{"id":248,"name":"Clearlake","st":"CA"}},{"type":"Feature","geometry":{"type":"Point","coordinates":[-122.866409126791,38.6175911526225]},"properties":{"id":249,"name":"Healdsburg","st":"CA"}},{"type":"Feature","geometry":{"type":"Point","coordinates":[-123.208609627636,39.1487636543826]},"properties":{"id":250,"name":"Ukiah","st":"CA"}},{"type":"Feature","geometry":{"type":"Point","coordinates":[-122.543109106251,37.9054726406704]},"properties":{"id":251,"name":"Mill Valley","st":"CA"}},{"type":"Feature","geometry":{"type":"Point","coordinates":[-122.539609102102,37.8885271757662]},"properties":{"id":252,"name":"Tamalpais-Homestead Valley","st":"CA"}},{"type":"Feature","geometry":{"type":"Point","coordinates":[-122.298881622368,38.3047636706641]},"properties":{"id":253,"name":"Napa","st":"CA"}},{"type":"Feature","geometry":{"type":"Point","coordinates":[-122.530236142607,37.9410721536177]},"properties":{"id":254,"name":"Larkspur","st":"CA"}},{"type":"Feature","geometry":{"type":"Point","coordinates":[-122.523691118197,37.9832546548642]},"properties":{"id":255,"name":"San Rafael","st":"CA"}},{"type":"Feature","geometry":{"type":"Point","coordinates":[-122.235881630932,38.1129726428574]},"properties":{"id":256,"name":"Vallejo","st":"CA"}},{"type":"Feature","geometry":{"type":"Point","coordinates":[-122.054254601855,38.2577636684635]},"properties":{"id":257,"name":"Fairfield","st":"CA"}},{"type":"Feature","geometry":{"type":"Point","coordinates":[-122.01704611935,38.2448636472231]},"properties":{"id":258,"name":"Suisun City","st":"CA"}},{"type":"Feature","geometry":{"type":"Point","coordinates":[-121.972681610283,38.353809143891]},"properties":{"id":259,"name":"Vacaville","st":"CA"}},{"type":"Feature","geometry":{"type":"Point","coordinates":[-122.295927140987,37.8915726539248]},"properties":{"id":260,"name":"Albany","st":"CA"}},{"type":"Feature","geometry":{"type":"Point","coordinates":[-122.274600135446,37.8717726542377]},"properties":{"id":261,"name":"Berkeley","st":"CA"}},{"type":"Feature","geometry":{"type":"Point","coordinates":[-122.305027110148,37.9174271446148]},"properties":{"id":262,"name":"El Cerrito","st":"CA"}},{"type":"Feature","geometry":{"type":"Point","coordinates":[-122.295881642598,37.9685361550169]},"properties":{"id":263,"name":"El Sobrante","st":"CA"}},{"type":"Feature","geometry":{"type":"Point","coordinates":[-122.258745632824,38.0074911429223]},"properties":{"id":264,"name":"Hercules","st":"CA"}},{"type":"Feature","geometry":{"type":"Point","coordinates":[-122.292082131671,37.9975091377485]},"properties":{"id":265,"name":"Pinole","st":"CA"}},{"type":"Feature","geometry":{"type":"Point","coordinates":[-122.342054639774,37.9368726481632]},"properties":{"id":266,"name":"Richmond","st":"CA"}},{"type":"Feature","geometry":{"type":"Point","coordinates":[-122.345091626011,37.9616271434958]},"properties":{"id":267,"name":"San Pablo","st":"CA"}},{"type":"Feature","geometry":{"type":"Point","coordinates":[-122.111618121337,37.8912271492336]},"properties":{"id":268,"name":"Lafayette","st":"CA"}},{"type":"Feature","geometry":{"type":"Point","coordinates":[-122.1751271286,37.8823541724915]},"properties":{"id":269,"name":"Orinda","st":"CA"}},{"type":"Feature","geometry":{"type":"Point","coordinates":[-122.156155132987,38.0633636639672]},"properties":{"id":270,"name":"Benicia","st":"CA"}},{"type":"Feature","geometry":{"type":"Point","coordinates":[-122.120081612579,38.0005911644756]},"properties":{"id":271,"name":"Martinez","st":"CA"}},{"type":"Feature","geometry":{"type":"Point","coordinates":[-122.072327619237,37.951672653816]},"properties":{"id":272,"name":"Pleasant Hill","st":"CA"}},{"type":"Feature","geometry":{"type":"Point","coordinates":[-121.956091141043,38.0277181531062]},"properties":{"id":273,"name":"Bay Point","st":"CA"}},{"type":"Feature","geometry":{"type":"Point","coordinates":[-121.934191138866,37.9407266489264]},"properties":{"id":274,"name":"Clayton","st":"CA"}},{"type":"Feature","geometry":{"type":"Point","coordinates":[-122.015136102813,37.9678271627397]},"properties":{"id":275,"name":"Concord","st":"CA"}},{"type":"Feature","geometry":{"type":"Point","coordinates":[-122.047373105828,37.9099541695325]},"properties":{"id":276,"name":"Walnut Creek","st":"CA"}},{"type":"Feature","geometry":{"type":"Point","coordinates":[-121.892491636527,38.0150181499431]},"properties":{"id":277,"name":"Pittsburg","st":"CA"}},{"type":"Feature","geometry":{"type":"Point","coordinates":[-122.436846141308,37.458836145412]},"properties":{"id":278,"name":"Half Moon Bay","st":"CA"}},{"type":"Feature","geometry":{"type":"Point","coordinates":[-122.236009634176,37.4828911394395]},"properties":{"id":279,"name":"Redwood City","st":"CA"}},{"type":"Feature","geometry":{"type":"Point","coordinates":[-122.263281609896,37.4991911349772]},"properties":{"id":280,"name":"San Carlos","st":"CA"}},{"type":"Feature","geometry":{"type":"Point","coordinates":[-122.291672604544,37.5180911573842]},"properties":{"id":281,"name":"Belmont","st":"CA"}},{"type":"Feature","geometry":{"type":"Point","coordinates":[-122.256809141471,37.7639726513161]},"properties":{"id":282,"name":"Alameda","st":"CA"}},{"type":"Feature","geometry":{"type":"Point","coordinates":[-122.228109107445,37.795227172195]},"properties":{"id":283,"name":"Oakland","st":"CA"}},{"type":"Feature","geometry":{"type":"Point","coordinates":[-122.231409135144,37.8219911727643]},"properties":{"id":284,"name":"Piedmont","st":"CA"}},{"type":"Feature","geometry":{"type":"Point","coordinates":[-122.17858163436,37.4541911470412]},"properties":{"id":285,"name":"Menlo Park","st":"CA"}},{"type":"Feature","geometry":{"type":"Point","coordinates":[-122.203509631326,37.4751726478911]},"properties":{"id":286,"name":"North Fair Oaks","st":"CA"}},{"type":"Feature","geometry":{"type":"Point","coordinates":[-122.437391622449,37.7598816676363]},"properties":{"id":287,"name":"San Francisco","st":"CA"}},{"type":"Feature","geometry":{"type":"Point","coordinates":[-122.465945628709,37.6907001393763]},"properties":{"id":288,"name":"Daly City","st":"CA"}},{"type":"Feature","geometry":{"type":"Point","coordinates":[-122.485509103377,37.6226811719616]},"properties":{"id":289,"name":"Pacifica","st":"CA"}},{"type":"Feature","geometry":{"type":"Point","coordinates":[-122.356272615717,37.560199645698]},"properties":{"id":290,"name":"Hillsborough","st":"CA"}},{"type":"Feature","geometry":{"type":"Point","coordinates":[-122.36369114259,37.5832361501737]},"properties":{"id":291,"name":"Burlingame","st":"CA"}},{"type":"Feature","geometry":{"type":"Point","coordinates":[-122.401355108508,37.6007361709209]},"properties":{"id":292,"name":"Millbrae","st":"CA"}},{"type":"Feature","geometry":{"type":"Point","coordinates":[-122.425263616872,37.625291147701]},"properties":{"id":293,"name":"San Bruno","st":"CA"}},{"type":"Feature","geometry":{"type":"Point","coordinates":[-122.425527116233,37.6559816633917]},"properties":{"id":294,"name":"South San Francisco","st":"CA"}},{"type":"Feature","geometry":{"type":"Point","coordinates":[-122.266381619518,37.551281670092]},"properties":{"id":295,"name":"Foster City","st":"CA"}},{"type":"Feature","geometry":{"type":"Point","coordinates":[-122.313045607999,37.5542816498618]},"properties":{"id":296,"name":"San Mateo","st":"CA"}},{"type":"Feature","geometry":{"type":"Point","coordinates":[-122.076972617608,37.6436361563672]},"properties":{"id":297,"name":"Hayward","st":"CA"}},{"type":"Feature","geometry":{"type":"Point","coordinates":[-122.153354630142,37.7107001571406]},"properties":{"id":298,"name":"San Leandro","st":"CA"}},{"type":"Feature","geometry":{"type":"Point","coordinates":[-122.045772628193,37.5921816412738]},"properties":{"id":299,"name":"Union City","st":"CA"}},{"type":"Feature","geometry":{"type":"Point","coordinates":[-122.116436621341,37.6946271540224]},"properties":{"id":300,"name":"Ashland","st":"CA"}},{"type":"Feature","geometry":{"type":"Point","coordinates":[-122.079382117373,37.7038001370669]},"properties":{"id":301,"name":"Castro Valley","st":"CA"}},{"type":"Feature","geometry":{"type":"Point","coordinates":[-122.102273135234,37.6798271483697]},"properties":{"id":302,"name":"Cherryland","st":"CA"}},{"type":"Feature","geometry":{"type":"Point","coordinates":[-122.13375510643,37.6751811509491]},"properties":{"id":303,"name":"San Lorenzo","st":"CA"}},{"type":"Feature","geometry":{"type":"Point","coordinates":[-122.12450061758,37.8437721631444]},"properties":{"id":304,"name":"Moraga","st":"CA"}},{"type":"Feature","geometry":{"type":"Point","coordinates":[-122.032718628416,37.8589911452692]},"properties":{"id":305,"name":"Alamo","st":"CA"}},{"type":"Feature","geometry":{"type":"Point","coordinates":[-121.912500104587,37.7142271356322]},"properties":{"id":306,"name":"Dublin","st":"CA"}},{"type":"Feature","geometry":{"type":"Point","coordinates":[-121.913991103024,37.8099996623536]},"properties":{"id":307,"name":"Blackhawk-Camino Tassajara","st":"CA"}},{"type":"Feature","geometry":{"type":"Point","coordinates":[-121.974191132768,37.8114726362693]},"properties":{"id":308,"name":"Danville","st":"CA"}},{"type":"Feature","geometry":{"type":"Point","coordinates":[-121.952136111378,37.7573541551251]},"properties":{"id":309,"name":"San Ramon","st":"CA"}},{"type":"Feature","geometry":{"type":"Point","coordinates":[-121.882518123276,37.6725271753955]},"properties":{"id":310,"name":"Pleasanton","st":"CA"}},{"type":"Feature","geometry":{"type":"Point","coordinates":[-122.139700118236,37.4670361372934]},"properties":{"id":311,"name":"East Palo Alto","st":"CA"}},{"type":"Feature","geometry":{"type":"Point","coordinates":[-122.097509125067,37.3681906585463]},"properties":{"id":312,"name":"Los Altos","st":"CA"}},{"type":"Feature","geometry":{"type":"Point","coordinates":[-122.082027601004,37.3926356566043]},"properties":{"id":313,"name":"Mountain View","st":"CA"}},{"type":"Feature","geometry":{"type":"Point","coordinates":[-122.138164120934,37.4292911650946]},"properties":{"id":314,"name":"Palo Alto","st":"CA"}},{"type":"Feature","geometry":{"type":"Point","coordinates":[-122.165409122312,37.4225911630981]},"properties":{"id":315,"name":"Stanford","st":"CA"}},{"type":"Feature","geometry":{"type":"Point","coordinates":[-122.033627139246,37.5355811460072]},"properties":{"id":316,"name":"Newark","st":"CA"}},{"type":"Feature","geometry":{"type":"Point","coordinates":[-122.041946101297,37.317491175271]},"properties":{"id":317,"name":"Cupertino","st":"CA"}},{"type":"Feature","geometry":{"type":"Point","coordinates":[-122.01953612587,37.272445647319]},"properties":{"id":318,"name":"Saratoga","st":"CA"}},{"type":"Feature","geometry":{"type":"Point","coordinates":[-122.026018126894,37.371991168523]},"properties":{"id":319,"name":"Sunnyvale","st":"CA"}},{"type":"Feature","geometry":{"type":"Point","coordinates":[-121.982781628204,37.542945141417]},"properties":{"id":320,"name":"Fremont","st":"CA"}},{"type":"Feature","geometry":{"type":"Point","coordinates":[-121.895054615303,37.4345816744591]},"properties":{"id":321,"name":"Milpitas","st":"CA"}},{"type":"Feature","geometry":{"type":"Point","coordinates":[-121.955027111475,37.2839091599582]},"properties":{"id":322,"name":"Campbell","st":"CA"}},{"type":"Feature","geometry":{"type":"Point","coordinates":[-121.96911812485,37.354445649387]},"properties":{"id":323,"name":"Santa Clara","st":"CA"}},{"type":"Feature","geometry":{"type":"Point","coordinates":[-121.961763620413,37.2360456457919]},"properties":{"id":324,"name":"Los Gatos","st":"CA"}},{"type":"Feature","geometry":{"type":"Point","coordinates":[-121.872736136179,37.3040546643365]},"properties":{"id":325,"name":"San Jose","st":"CA"}},{"type":"Feature","geometry":{"type":"Point","coordinates":[-120.203564134689,39.3421636517467]},"properties":{"id":326,"name":"Truckee","st":"CA"}},{"type":"Feature","geometry":{"type":"Point","coordinates":[-121.835464130764,39.7399811666728]},"properties":{"id":327,"name":"Chico","st":"CA"}},{"type":"Feature","geometry":{"type":"Point","coordinates":[-121.603409609694,39.8260091706617]},"properties":{"id":328,"name":"Magalia","st":"CA"}},{"type":"Feature","geometry":{"type":"Point","coordinates":[-121.554563613393,39.5086546614523]},"properties":{"id":329,"name":"Oroville","st":"CA"}},{"type":"Feature","geometry":{"type":"Point","coordinates":[-121.608718101954,39.7617086662664]},"properties":{"id":330,"name":"Paradise","st":"CA"}},{"type":"Feature","geometry":{"type":"Point","coordinates":[-120.646018108338,40.417091145208]},"properties":{"id":331,"name":"Susanville","st":"CA"}},{"type":"Feature","geometry":{"type":"Point","coordinates":[-119.821809132859,39.527108649791]},"properties":{"id":332,"name":"Reno","st":"NV"}},{"type":"Feature","geometry":{"type":"Point","coordinates":[-119.735645632753,39.5545456768481]},"properties":{"id":333,"name":"Sparks","st":"NV"}},{"type":"Feature","geometry":{"type":"Point","coordinates":[-119.77434561322,39.5963911653259]},"properties":{"id":334,"name":"Sun Valley","st":"NV"}},{"type":"Feature","geometry":{"type":"Point","coordinates":[-121.764100636311,37.6854996693669]},"properties":{"id":335,"name":"Livermore","st":"CA"}},{"type":"Feature","geometry":{"type":"Point","coordinates":[-121.825472634618,37.3675911454664]},"properties":{"id":336,"name":"Alum Rock","st":"CA"}},{"type":"Feature","geometry":{"type":"Point","coordinates":[-121.288636103783,37.8169001403252]},"properties":{"id":337,"name":"Lathrop","st":"CA"}},{"type":"Feature","geometry":{"type":"Point","coordinates":[-121.433855138935,37.7379811659347]},"properties":{"id":338,"name":"Tracy","st":"CA"}},{"type":"Feature","geometry":{"type":"Point","coordinates":[-121.220818111868,37.8027726616353]},"properties":{"id":339,"name":"Manteca","st":"CA"}},{"type":"Feature","geometry":{"type":"Point","coordinates":[-120.844172624897,37.0623541518123]},"properties":{"id":340,"name":"Los Banos","st":"CA"}},{"type":"Feature","geometry":{"type":"Point","coordinates":[-119.984345612424,38.9292361759954]},"properties":{"id":341,"name":"South Lake Tahoe","st":"CA"}},{"type":"Feature","geometry":{"type":"Point","coordinates":[-119.753872628672,39.1609456502713]},"properties":{"id":342,"name":"Carson","st":"NV"}},{"type":"Feature","geometry":{"type":"Point","coordinates":[-119.734482114485,38.8958636697322]},"properties":{"id":343,"name":"Gardnerville Ranchos","st":"NV"}},{"type":"Feature","geometry":{"type":"Point","coordinates":[-121.398309616299,36.8471086421077]},"properties":{"id":344,"name":"Hollister","st":"CA"}},{"type":"Feature","geometry":{"type":"Point","coordinates":[-121.580081632466,37.0120456716171]},"properties":{"id":345,"name":"Gilroy","st":"CA"}},{"type":"Feature","geometry":{"type":"Point","coordinates":[-121.643164128757,37.1267911513743]},"properties":{"id":346,"name":"Morgan Hill","st":"CA"}},{"type":"Feature","geometry":{"type":"Point","coordinates":[-121.66723610663,36.7999181544292]},"properties":{"id":347,"name":"Prunedale","st":"CA"}},{"type":"Feature","geometry":{"type":"Point","coordinates":[-121.643127122291,36.68386366979]},"properties":{"id":348,"name":"Salinas","st":"CA"}},{"type":"Feature","geometry":{"type":"Point","coordinates":[-121.797246108527,36.6781546418513]},"properties":{"id":349,"name":"Marina","st":"CA"}},{"type":"Feature","geometry":{"type":"Point","coordinates":[-121.833955107804,36.6158091528565]},"properties":{"id":350,"name":"Seaside","st":"CA"}},{"type":"Feature","geometry":{"type":"Point","coordinates":[-121.7637271166,36.920054173403]},"properties":{"id":351,"name":"Watsonville","st":"CA"}},{"type":"Feature","geometry":{"type":"Point","coordinates":[-120.957163606856,37.6013271504512]},"properties":{"id":352,"name":"Ceres","st":"CA"}},{"type":"Feature","geometry":{"type":"Point","coordinates":[-120.994546132145,37.6614816401786]},"properties":{"id":353,"name":"Modesto","st":"CA"}},{"type":"Feature","geometry":{"type":"Point","coordinates":[-121.132863607022,37.4729811490989]},"properties":{"id":354,"name":"Patterson","st":"CA"}},{"type":"Feature","geometry":{"type":"Point","coordinates":[-120.943655122715,37.7312721724909]},"properties":{"id":355,"name":"Riverbank","st":"CA"}},{"type":"Feature","geometry":{"type":"Point","coordinates":[-121.128227100574,37.7404811629519]},"properties":{"id":356,"name":"Ripon","st":"CA"}},{"type":"Feature","geometry":{"type":"Point","coordinates":[-121.089282103166,37.7098726525916]},"properties":{"id":357,"name":"Salida","st":"CA"}},{"type":"Feature","geometry":{"type":"Point","coordinates":[-120.85695463339,37.7691816548751]},"properties":{"id":358,"name":"Oakdale","st":"CA"}},{"type":"Feature","geometry":{"type":"Point","coordinates":[-120.84901814087,37.5057266684152]},"properties":{"id":359,"name":"Turlock","st":"CA"}},{"type":"Feature","geometry":{"type":"Point","coordinates":[-120.477918628599,37.3059721737459]},"properties":{"id":360,"name":"Merced","st":"CA"}},{"type":"Feature","geometry":{"type":"Point","coordinates":[-120.603018634191,37.3542456729367]},"properties":{"id":361,"name":"Atwater","st":"CA"}},{"type":"Feature","geometry":{"type":"Point","coordinates":[-120.72158160777,37.3845271610255]},"properties":{"id":362,"name":"Livingston","st":"CA"}},{"type":"Feature","geometry":{"type":"Point","coordinates":[-121.738091126407,38.5538546534153]},"properties":{"id":363,"name":"Davis","st":"CA"}},{"type":"Feature","geometry":{"type":"Point","coordinates":[-121.826872636277,38.4491091617268]},"properties":{"id":364,"name":"Dixon","st":"CA"}},{"type":"Feature","geometry":{"type":"Point","coordinates":[-121.280927103207,38.1287546727476]},"properties":{"id":365,"name":"Lodi","st":"CA"}},{"type":"Feature","geometry":{"type":"Point","coordinates":[-121.300864139212,37.9756266605687]},"properties":{"id":366,"name":"Stockton","st":"CA"}},{"type":"Feature","geometry":{"type":"Point","coordinates":[-121.802227620142,37.9924181469364]},"properties":{"id":367,"name":"Antioch","st":"CA"}},{"type":"Feature","geometry":{"type":"Point","coordinates":[-121.709536121098,37.9353091353676]},"properties":{"id":368,"name":"Brentwood","st":"CA"}},{"type":"Feature","geometry":{"type":"Point","coordinates":[-121.718336125584,37.9934721443801]},"properties":{"id":369,"name":"Oakley","st":"CA"}},{"type":"Feature","geometry":{"type":"Point","coordinates":[-121.381927615431,38.4382181461984]},"properties":{"id":370,"name":"Elk Grove","st":"CA"}},{"type":"Feature","geometry":{"type":"Point","coordinates":[-121.303118619763,38.2608456535636]},"properties":{"id":371,"name":"Galt","st":"CA"}},{"type":"Feature","geometry":{"type":"Point","coordinates":[-121.356209619908,38.5495086622972]},"properties":{"id":372,"name":"Rosemont","st":"CA"}},{"type":"Feature","geometry":{"type":"Point","coordinates":[-121.346918124592,38.4644911554625]},"properties":{"id":373,"name":"Vineyard","st":"CA"}},{"type":"Feature","geometry":{"type":"Point","coordinates":[-121.410864132849,38.4901546611496]},"properties":{"id":374,"name":"Florin","st":"CA"}},{"type":"Feature","geometry":{"type":"Point","coordinates":[-121.427418136775,38.4238726665364]},"properties":{"id":375,"name":"Laguna","st":"CA"}},{"type":"Feature","geometry":{"type":"Point","coordinates":[-121.452291602277,38.5116546687989]},"properties":{"id":376,"name":"Parkway-South Sacramento","st":"CA"}},{"type":"Feature","geometry":{"type":"Point","coordinates":[-121.468927112009,38.5556091512137]},"properties":{"id":377,"name":"Sacramento","st":"CA"}},{"type":"Feature","geometry":{"type":"Point","coordinates":[-121.56300912174,39.1251811692407]},"properties":{"id":378,"name":"Linda","st":"CA"}},{"type":"Feature","geometry":{"type":"Point","coordinates":[-121.547773114143,39.0863456510298]},"properties":{"id":379,"name":"Olivehurst","st":"CA"}},{"type":"Feature","geometry":{"type":"Point","coordinates":[-121.585545601836,39.1493456424656]},"properties":{"id":380,"name":"Marysville","st":"CA"}},{"type":"Feature","geometry":{"type":"Point","coordinates":[-121.6389726157,39.1121911502723]},"properties":{"id":381,"name":"South Yuba City","st":"CA"}},{"type":"Feature","geometry":{"type":"Point","coordinates":[-121.772500105117,38.6740546531977]},"properties":{"id":382,"name":"Woodland","st":"CA"}},{"type":"Feature","geometry":{"type":"Point","coordinates":[-121.626200139806,39.134791153279]},"properties":{"id":383,"name":"Yuba City","st":"CA"}},{"type":"Feature","geometry":{"type":"Point","coordinates":[-121.53917262821,38.5711091576964]},"properties":{"id":384,"name":"West Sacramento","st":"CA"}},{"type":"Feature","geometry":{"type":"Point","coordinates":[-121.295972625326,38.8871181550823]},"properties":{"id":385,"name":"Lincoln","st":"CA"}},{"type":"Feature","geometry":{"type":"Point","coordinates":[-121.453818108606,38.6902546605102]},"properties":{"id":386,"name":"Rio Linda","st":"CA"}},{"type":"Feature","geometry":{"type":"Point","coordinates":[-121.246727134021,38.8000091376804]},"properties":{"id":387,"name":"Rocklin","st":"CA"}},{"type":"Feature","geometry":{"type":"Point","coordinates":[-121.289336604138,38.7524356393195]},"properties":{"id":388,"name":"Roseville","st":"CA"}},{"type":"Feature","geometry":{"type":"Point","coordinates":[-121.379746107136,38.6051546488203]},"properties":{"id":389,"name":"Arden-Arcade","st":"CA"}},{"type":"Feature","geometry":{"type":"Point","coordinates":[-121.34779112753,38.6817361382797]},"properties":{"id":390,"name":"Foothill Farms","st":"CA"}},{"type":"Feature","geometry":{"type":"Point","coordinates":[-121.356772626047,38.5667726575505]},"properties":{"id":391,"name":"La Riviera","st":"CA"}},{"type":"Feature","geometry":{"type":"Point","coordinates":[-121.372700100924,38.6730001562291]},"properties":{"id":392,"name":"North Highlands","st":"CA"}},{"type":"Feature","geometry":{"type":"Point","coordinates":[-121.179791636017,38.7485001743778]},"properties":{"id":393,"name":"Granite Bay","st":"CA"}},{"type":"Feature","geometry":{"type":"Point","coordinates":[-121.321345615682,38.6394271739908]},"properties":{"id":394,"name":"Carmichael","st":"CA"}},{"type":"Feature","geometry":{"type":"Point","coordinates":[-121.297273138285,38.5850811592752]},"properties":{"id":395,"name":"Rancho Cordova","st":"CA"}},{"type":"Feature","geometry":{"type":"Point","coordinates":[-121.290545620794,38.6947001403286]},"properties":{"id":396,"name":"Citrus Heights","st":"CA"}},{"type":"Feature","geometry":{"type":"Point","coordinates":[-121.259282108468,38.6512546737408]},"properties":{"id":397,"name":"Fair Oaks","st":"CA"}},{"type":"Feature","geometry":{"type":"Point","coordinates":[-121.213827136644,38.6819001489404]},"properties":{"id":398,"name":"Orangevale","st":"CA"}},{"type":"Feature","geometry":{"type":"Point","coordinates":[-119.694727637049,36.8194361723357]},"properties":{"id":399,"name":"Clovis","st":"CA"}},{"type":"Feature","geometry":{"type":"Point","coordinates":[-119.792109133328,36.781545671896]},"properties":{"id":400,"name":"Fresno","st":"CA"}},{"type":"Feature","geometry":{"type":"Point","coordinates":[-119.448700115351,36.5969546704654]},"properties":{"id":401,"name":"Reedley","st":"CA"}},{"type":"Feature","geometry":{"type":"Point","coordinates":[-120.261691136284,37.1179181746322]},"properties":{"id":402,"name":"Chowchilla","st":"CA"}},{"type":"Feature","geometry":{"type":"Point","coordinates":[-120.06731810613,36.963409142738]},"properties":{"id":403,"name":"Madera","st":"CA"}},{"type":"Feature","geometry":{"type":"Point","coordinates":[-119.536163628892,36.6094181486098]},"properties":{"id":404,"name":"Parlier","st":"CA"}},{"type":"Feature","geometry":{"type":"Point","coordinates":[-119.558772623346,36.7042546490074]},"properties":{"id":405,"name":"Sanger","st":"CA"}},{"type":"Feature","geometry":{"type":"Point","coordinates":[-119.612754609324,36.5726996583606]},"properties":{"id":406,"name":"Selma","st":"CA"}},{"type":"Feature","geometry":{"type":"Point","coordinates":[-119.389263609349,36.5449001427672]},"properties":{"id":407,"name":"Dinuba","st":"CA"}},{"type":"Feature","geometry":{"type":"Point","coordinates":[-116.770618616127,32.8345631440589]},"properties":{"id":408,"name":"Alpine","st":"CA"}},{"type":"Feature","geometry":{"type":"Point","coordinates":[-116.905418603485,32.8495361518198]},"properties":{"id":409,"name":"Lakeside","st":"CA"}},{"type":"Feature","geometry":{"type":"Point","coordinates":[-116.870636105065,33.0358636681539]},"properties":{"id":410,"name":"Ramona","st":"CA"}},{"type":"Feature","geometry":{"type":"Point","coordinates":[-116.960054634006,32.7983001372233]},"properties":{"id":411,"name":"El Cajon","st":"CA"}},{"type":"Feature","geometry":{"type":"Point","coordinates":[-116.921472624659,32.7659816700307]},"properties":{"id":412,"name":"Rancho San Diego","st":"CA"}},{"type":"Feature","geometry":{"type":"Point","coordinates":[-116.949909117696,32.8216091325072]},"properties":{"id":413,"name":"Bostonia","st":"CA"}},{"type":"Feature","geometry":{"type":"Point","coordinates":[-116.927745616159,32.8410451450834]},"properties":{"id":414,"name":"Winter Gardens","st":"CA"}},{"type":"Feature","geometry":{"type":"Point","coordinates":[-117.725427116087,33.5751001661537]},"properties":{"id":415,"name":"Aliso Viejo","st":"CA"}},{"type":"Feature","geometry":{"type":"Point","coordinates":[-117.702500132436,33.5319361401945]},"properties":{"id":416,"name":"Laguna Niguel","st":"CA"}},{"type":"Feature","geometry":{"type":"Point","coordinates":[-117.693036134536,33.4722086609639]},"properties":{"id":417,"name":"Dana Point","st":"CA"}},{"type":"Feature","geometry":{"type":"Point","coordinates":[-117.912291122115,33.6649726383065]},"properties":{"id":418,"name":"Costa Mesa","st":"CA"}},{"type":"Feature","geometry":{"type":"Point","coordinates":[-117.897600137762,33.6166726642984]},"properties":{"id":419,"name":"Newport Beach","st":"CA"}},{"type":"Feature","geometry":{"type":"Point","coordinates":[-117.76904562641,33.5315271542196]},"properties":{"id":420,"name":"Laguna Beach","st":"CA"}},{"type":"Feature","geometry":{"type":"Point","coordinates":[-117.699572625397,33.5995911621254]},"properties":{"id":421,"name":"Laguna Hills","st":"CA"}},{"type":"Feature","geometry":{"type":"Point","coordinates":[-117.732791611021,33.6091631406476]},"properties":{"id":422,"name":"Laguna Woods","st":"CA"}},{"type":"Feature","geometry":{"type":"Point","coordinates":[-117.690736113969,33.6416456601278]},"properties":{"id":423,"name":"Lake Forest","st":"CA"}},{"type":"Feature","geometry":{"type":"Point","coordinates":[-117.038481618041,32.9698911708154]},"properties":{"id":424,"name":"Poway","st":"CA"}},{"type":"Feature","geometry":{"type":"Point","coordinates":[-117.146345601772,32.7795456430573]},"properties":{"id":425,"name":"San Diego","st":"CA"}},{"type":"Feature","geometry":{"type":"Point","coordinates":[-117.035336110031,32.6584181505008]},"properties":{"id":426,"name":"Bonita","st":"CA"}},{"type":"Feature","geometry":{"type":"Point","coordinates":[-117.04799111433,32.6279091704678]},"properties":{"id":427,"name":"Chula Vista","st":"CA"}},{"type":"Feature","geometry":{"type":"Point","coordinates":[-116.988245610577,32.8482361383851]},"properties":{"id":428,"name":"Santee","st":"CA"}},{"type":"Feature","geometry":{"type":"Point","coordinates":[-117.172581604569,32.6781911342186]},"properties":{"id":429,"name":"Coronado","st":"CA"}},{"type":"Feature","geometry":{"type":"Point","coordinates":[-117.117109119679,32.5782546515616]},"properties":{"id":430,"name":"Imperial Beach","st":"CA"}},{"type":"Feature","geometry":{"type":"Point","coordinates":[-117.092727602905,32.6709001526918]},"properties":{"id":431,"name":"National City","st":"CA"}},{"type":"Feature","geometry":{"type":"Point","coordinates":[-116.977472607796,32.7633636602666]},"properties":{"id":432,"name":"Casa de Oro-Mount Helix","st":"CA"}},{"type":"Feature","geometry":{"type":"Point","coordinates":[-116.981372606473,32.7343176636521]},"properties":{"id":433,"name":"Spring Valley","st":"CA"}},{"type":"Feature","geometry":{"type":"Point","coordinates":[-117.003863629807,32.7120546317871]},"properties":{"id":434,"name":"La Presa","st":"CA"}},{"type":"Feature","geometry":{"type":"Point","coordinates":[-117.033700124504,32.7334546512113]},"properties":{"id":435,"name":"Lemon Grove","st":"CA"}},{"type":"Feature","geometry":{"type":"Point","coordinates":[-117.022800117528,32.7714546308484]},"properties":{"id":436,"name":"La Mesa","st":"CA"}},{"type":"Feature","geometry":{"type":"Point","coordinates":[-117.620400100516,33.4378271561209]},"properties":{"id":437,"name":"San Clemente","st":"CA"}},{"type":"Feature","geometry":{"type":"Point","coordinates":[-117.661618102522,33.4994911683325]},"properties":{"id":438,"name":"San Juan Capistrano","st":"CA"}},{"type":"Feature","geometry":{"type":"Point","coordinates":[-117.587663614274,33.5959266477904]},"properties":{"id":439,"name":"Coto de Caza","st":"CA"}},{"type":"Feature","geometry":{"type":"Point","coordinates":[-117.656036120404,33.6127356591551]},"properties":{"id":440,"name":"Mission Viejo","st":"CA"}},{"type":"Feature","geometry":{"type":"Point","coordinates":[-117.594527127406,33.6415176568838]},"properties":{"id":441,"name":"Rancho Santa Margarita","st":"CA"}},{"type":"Feature","geometry":{"type":"Point","coordinates":[-117.236127118774,33.3716911476465]},"properties":{"id":442,"name":"Fallbrook","st":"CA"}},{"type":"Feature","geometry":{"type":"Point","coordinates":[-117.123691108929,33.5032911371573]},"properties":{"id":443,"name":"Temecula","st":"CA"}},{"type":"Feature","geometry":{"type":"Point","coordinates":[-117.202454606208,33.5695631412734]},"properties":{"id":444,"name":"Murrieta","st":"CA"}},{"type":"Feature","geometry":{"type":"Point","coordinates":[-117.260191603774,33.6074636322103]},"properties":{"id":445,"name":"Wildomar","st":"CA"}},{"type":"Feature","geometry":{"type":"Point","coordinates":[-117.325700125776,33.2115636683206]},"properties":{"id":446,"name":"Oceanside","st":"CA"}},{"type":"Feature","geometry":{"type":"Point","coordinates":[-117.080845613319,33.1247911641627]},"properties":{"id":447,"name":"Escondido","st":"CA"}},{"type":"Feature","geometry":{"type":"Point","coordinates":[-117.170236127241,33.1420726427859]},"properties":{"id":448,"name":"San Marcos","st":"CA"}},{"type":"Feature","geometry":{"type":"Point","coordinates":[-117.296809106748,33.1219911608431]},"properties":{"id":449,"name":"Carlsbad","st":"CA"}},{"type":"Feature","geometry":{"type":"Point","coordinates":[-117.271691123829,33.044445630041]},"properties":{"id":450,"name":"Encinitas","st":"CA"}},{"type":"Feature","geometry":{"type":"Point","coordinates":[-117.260381631354,32.9953911653667]},"properties":{"id":451,"name":"Solana Beach","st":"CA"}},{"type":"Feature","geometry":{"type":"Point","coordinates":[-117.241136104255,33.1935451407741]},"properties":{"id":452,"name":"Vista","st":"CA"}},{"type":"Feature","geometry":{"type":"Point","coordinates":[-118.154063607845,34.6869816342061]},"properties":{"id":453,"name":"Lancaster","st":"CA"}},{"type":"Feature","geometry":{"type":"Point","coordinates":[-118.206855101213,34.8657811444698]},"properties":{"id":454,"name":"Rosamond","st":"CA"}},{"type":"Feature","geometry":{"type":"Point","coordinates":[-118.917745614563,34.4012721494308]},"properties":{"id":455,"name":"Fillmore","st":"CA"}},{"type":"Feature","geometry":{"type":"Point","coordinates":[-118.506445632416,34.4165636459136]},"properties":{"id":456,"name":"Santa Clarita","st":"CA"}},{"type":"Feature","geometry":{"type":"Point","coordinates":[-117.833681603372,34.6176636524065]},"properties":{"id":457,"name":"Lake Los Angeles","st":"CA"}},{"type":"Feature","geometry":{"type":"Point","coordinates":[-118.100600128667,34.5810091429658]},"properties":{"id":458,"name":"Palmdale","st":"CA"}},{"type":"Feature","geometry":{"type":"Point","coordinates":[-118.778609626585,34.030454660568]},"properties":{"id":459,"name":"Malibu","st":"CA"}},{"type":"Feature","geometry":{"type":"Point","coordinates":[-118.875054638642,34.1894911359839]},"properties":{"id":460,"name":"Thousand Oaks","st":"CA"}},{"type":"Feature","geometry":{"type":"Point","coordinates":[-119.03220911254,34.2256091557305]},"properties":{"id":461,"name":"Camarillo","st":"CA"}},{"type":"Feature","geometry":{"type":"Point","coordinates":[-118.873564098102,34.2810546662785]},"properties":{"id":462,"name":"Moorpark","st":"CA"}},{"type":"Feature","geometry":{"type":"Point","coordinates":[-118.438836108874,34.2872546438954]},"properties":{"id":463,"name":"San Fernando","st":"CA"}},{"type":"Feature","geometry":{"type":"Point","coordinates":[-118.761809107142,34.1533636668921]},"properties":{"id":464,"name":"Agoura Hills","st":"CA"}},{"type":"Feature","geometry":{"type":"Point","coordinates":[-118.660918115742,34.1383636431621]},"properties":{"id":465,"name":"Calabasas","st":"CA"}},{"type":"Feature","geometry":{"type":"Point","coordinates":[-118.739427105108,34.2710816525521]},"properties":{"id":466,"name":"Simi Valley","st":"CA"}},{"type":"Feature","geometry":{"type":"Point","coordinates":[-118.481336099793,34.0220631425318]},"properties":{"id":467,"name":"Santa Monica","st":"CA"}},{"type":"Feature","geometry":{"type":"Point","coordinates":[-118.399463601444,34.0731091711752]},"properties":{"id":468,"name":"Beverly Hills","st":"CA"}},{"type":"Feature","geometry":{"type":"Point","coordinates":[-118.375981604052,34.086163670477]},"properties":{"id":469,"name":"Los Angeles","st":"CA"}},{"type":"Feature","geometry":{"type":"Point","coordinates":[-118.372163610706,34.0879091352009]},"properties":{"id":470,"name":"West Hollywood","st":"CA"}},{"type":"Feature","geometry":{"type":"Point","coordinates":[-118.400909101493,34.0077636607836]},"properties":{"id":471,"name":"Culver City","st":"CA"}},{"type":"Feature","geometry":{"type":"Point","coordinates":[-118.396655106202,33.7870456481591]},"properties":{"id":472,"name":"Palos Verdes Estates","st":"CA"}},{"type":"Feature","geometry":{"type":"Point","coordinates":[-118.406236117799,33.9213091458228]},"properties":{"id":473,"name":"El Segundo","st":"CA"}},{"type":"Feature","geometry":{"type":"Point","coordinates":[-118.399682101941,33.8663176617407]},"properties":{"id":474,"name":"Hermosa Beach","st":"CA"}},{"type":"Feature","geometry":{"type":"Point","coordinates":[-118.405354622939,33.8889816455558]},"properties":{"id":475,"name":"Manhattan Beach","st":"CA"}},{"type":"Feature","geometry":{"type":"Point","coordinates":[-118.377082098935,33.8565176501222]},"properties":{"id":476,"name":"Redondo Beach","st":"CA"}},{"type":"Feature","geometry":{"type":"Point","coordinates":[-118.252709110142,33.9175181684454]},"properties":{"id":477,"name":"Willowbrook","st":"CA"}},{"type":"Feature","geometry":{"type":"Point","coordinates":[-118.225081597607,33.8967176621012]},"properties":{"id":478,"name":"Compton","st":"CA"}},{"type":"Feature","geometry":{"type":"Point","coordinates":[-118.201863599101,33.9246456388364]},"properties":{"id":479,"name":"Lynwood","st":"CA"}},{"type":"Feature","geometry":{"type":"Point","coordinates":[-118.04846413679,34.0489091484315]},"properties":{"id":480,"name":"South El Monte","st":"CA"}},{"type":"Feature","geometry":{"type":"Point","coordinates":[-118.027491627388,34.073272640684]},"properties":{"id":481,"name":"El Monte","st":"CA"}},{"type":"Feature","geometry":{"type":"Point","coordinates":[-118.057981625476,34.1026456595701]},"properties":{"id":482,"name":"Temple City","st":"CA"}},{"type":"Feature","geometry":{"type":"Point","coordinates":[-118.082309110312,34.0704271389756]},"properties":{"id":483,"name":"Rosemead","st":"CA"}},{"type":"Feature","geometry":{"type":"Point","coordinates":[-118.098445636341,34.0941726357284]},"properties":{"id":484,"name":"San Gabriel","st":"CA"}},{"type":"Feature","geometry":{"type":"Point","coordinates":[-118.364255133204,33.7582181520415]},"properties":{"id":485,"name":"Rancho Palos Verdes","st":"CA"}},{"type":"Feature","geometry":{"type":"Point","coordinates":[-118.341327108876,33.8348181655476]},"properties":{"id":486,"name":"Torrance","st":"CA"}},{"type":"Feature","geometry":{"type":"Point","coordinates":[-118.259591105694,33.8396816644154]},"properties":{"id":487,"name":"Carson","st":"CA"}},{"type":"Feature","geometry":{"type":"Point","coordinates":[-118.316109637257,33.7933816630447]},"properties":{"id":488,"name":"Lomita","st":"CA"}},{"type":"Feature","geometry":{"type":"Point","coordinates":[-118.292536101936,33.8262636359005]},"properties":{"id":489,"name":"West Carson","st":"CA"}},{"type":"Feature","geometry":{"type":"Point","coordinates":[-118.243881631789,33.969363145467]},"properties":{"id":490,"name":"Florence-Graham","st":"CA"}},{"type":"Feature","geometry":{"type":"Point","coordinates":[-118.217381630105,33.9823636544574]},"properties":{"id":491,"name":"Huntington Park","st":"CA"}},{"type":"Feature","geometry":{"type":"Point","coordinates":[-118.223791116772,33.968781656909]},"properties":{"id":492,"name":"Walnut Park","st":"CA"}},{"type":"Feature","geometry":{"type":"Point","coordinates":[-118.307836131968,33.8936181520041]},"properties":{"id":493,"name":"Gardena","st":"CA"}},{"type":"Feature","geometry":{"type":"Point","coordinates":[-118.353554603154,33.8867631307943]},"properties":{"id":494,"name":"Lawndale","st":"CA"}},{"type":"Feature","geometry":{"type":"Point","coordinates":[-118.348609598481,33.917218162143]},"properties":{"id":495,"name":"Hawthorne","st":"CA"}},{"type":"Feature","geometry":{"type":"Point","coordinates":[-118.346081628072,33.9575086713749]},"properties":{"id":496,"name":"Inglewood","st":"CA"}},{"type":"Feature","geometry":{"type":"Point","coordinates":[-118.3574816178,33.9398086325504]},"properties":{"id":497,"name":"Lennox","st":"CA"}},{"type":"Feature","geometry":{"type":"Point","coordinates":[-118.346945597935,33.9936636559607]},"properties":{"id":498,"name":"View Park-Windsor Hills","st":"CA"}},{"type":"Feature","geometry":{"type":"Point","coordinates":[-118.302309097585,33.9415176319599]},"properties":{"id":499,"name":"Westmont","st":"CA"}},{"type":"Feature","geometry":{"type":"Point","coordinates":[-118.127600113103,33.888163631979]},"properties":{"id":500,"name":"Bellflower","st":"CA"}},{"type":"Feature","geometry":{"type":"Point","coordinates":[-118.166655130861,33.8999181594731]},"properties":{"id":501,"name":"Paramount","st":"CA"}},{"type":"Feature","geometry":{"type":"Point","coordinates":[-118.080618634949,33.8672181385456]},"properties":{"id":502,"name":"Artesia","st":"CA"}},{"type":"Feature","geometry":{"type":"Point","coordinates":[-118.067546111126,33.868318133903]},"properties":{"id":503,"name":"Cerritos","st":"CA"}},{"type":"Feature","geometry":{"type":"Point","coordinates":[-118.083400114222,33.906918167772]},"properties":{"id":504,"name":"Norwalk","st":"CA"}},{"type":"Feature","geometry":{"type":"Point","coordinates":[-118.067154608521,33.9374456718517]},"properties":{"id":505,"name":"Santa Fe Springs","st":"CA"}},{"type":"Feature","geometry":{"type":"Point","coordinates":[-118.069000103097,33.9761091453773]},"properties":{"id":506,"name":"West Whittier-Los Nietos","st":"CA"}},{"type":"Feature","geometry":{"type":"Point","coordinates":[-118.089118133608,33.9890091666176]},"properties":{"id":507,"name":"Pico Rivera","st":"CA"}},{"type":"Feature","geometry":{"type":"Point","coordinates":[-118.030800105383,33.9347271327106]},"properties":{"id":508,"name":"South Whittier","st":"CA"}},{"type":"Feature","geometry":{"type":"Point","coordinates":[-118.13080011095,33.9381636555764]},"properties":{"id":509,"name":"Downey","st":"CA"}},{"type":"Feature","geometry":{"type":"Point","coordinates":[-118.182909128485,33.9784181573916]},"properties":{"id":510,"name":"Bell","st":"CA"}},{"type":"Feature","geometry":{"type":"Point","coordinates":[-118.154782132722,34.0006091327963]},"properties":{"id":511,"name":"Commerce","st":"CA"}},{"type":"Feature","geometry":{"type":"Point","coordinates":[-118.186555118773,33.9878636312443]},"properties":{"id":512,"name":"Maywood","st":"CA"}},{"type":"Feature","geometry":{"type":"Point","coordinates":[-118.156036106616,33.9681811447793]},"properties":{"id":513,"name":"Bell Gardens","st":"CA"}},{"type":"Feature","geometry":{"type":"Point","coordinates":[-118.182573114766,33.9642176648188]},"properties":{"id":514,"name":"Cudahy","st":"CA"}},{"type":"Feature","geometry":{"type":"Point","coordinates":[-118.194900097744,33.9442631454432]},"properties":{"id":515,"name":"South Gate","st":"CA"}},{"type":"Feature","geometry":{"type":"Point","coordinates":[-118.114500614938,34.0144091313168]},"properties":{"id":516,"name":"Montebello","st":"CA"}},{"type":"Feature","geometry":{"type":"Point","coordinates":[-118.158027129433,33.8041361417795]},"properties":{"id":517,"name":"Long Beach","st":"CA"}},{"type":"Feature","geometry":{"type":"Point","coordinates":[-118.064445601979,33.8023181626974]},"properties":{"id":518,"name":"Los Alamitos","st":"CA"}},{"type":"Feature","geometry":{"type":"Point","coordinates":[-118.079718116517,33.7889176591796]},"properties":{"id":519,"name":"Rossmoor","st":"CA"}},{"type":"Feature","geometry":{"type":"Point","coordinates":[-118.08240010709,33.7592816404574]},"properties":{"id":520,"name":"Seal Beach","st":"CA"}},{"type":"Feature","geometry":{"type":"Point","coordinates":[-118.03904563728,33.8183181519327]},"properties":{"id":521,"name":"Cypress","st":"CA"}},{"type":"Feature","geometry":{"type":"Point","coordinates":[-118.119891612052,33.8473636490223]},"properties":{"id":522,"name":"Lakewood","st":"CA"}},{"type":"Feature","geometry":{"type":"Point","coordinates":[-118.073645600993,33.8285636564675]},"properties":{"id":523,"name":"Hawaiian Gardens","st":"CA"}},{"type":"Feature","geometry":{"type":"Point","coordinates":[-118.043955134061,33.8493271563454]},"properties":{"id":524,"name":"La Palma","st":"CA"}},{"type":"Feature","geometry":{"type":"Point","coordinates":[-118.328336132485,34.1801726663255]},"properties":{"id":525,"name":"Burbank","st":"CA"}},{"type":"Feature","geometry":{"type":"Point","coordinates":[-118.250081609406,34.1709361603704]},"properties":{"id":526,"name":"Glendale","st":"CA"}},{"type":"Feature","geometry":{"type":"Point","coordinates":[-118.199500638402,34.2060451399102]},"properties":{"id":527,"name":"La Canada Flintridge","st":"CA"}},{"type":"Feature","geometry":{"type":"Point","coordinates":[-118.236845616074,34.2249541537646]},"properties":{"id":528,"name":"La Crescenta-Montrose","st":"CA"}},{"type":"Feature","geometry":{"type":"Point","coordinates":[-118.036491108799,34.1326911637919]},"properties":{"id":529,"name":"Arcadia","st":"CA"}},{"type":"Feature","geometry":{"type":"Point","coordinates":[-118.05090910282,34.1648086554846]},"properties":{"id":530,"name":"Sierra Madre","st":"CA"}},{"type":"Feature","geometry":{"type":"Point","coordinates":[-118.082054602399,34.1191456315579]},"properties":{"id":531,"name":"East San Gabriel","st":"CA"}},{"type":"Feature","geometry":{"type":"Point","coordinates":[-118.134791106405,34.1886091415985]},"properties":{"id":532,"name":"Altadena","st":"CA"}},{"type":"Feature","geometry":{"type":"Point","coordinates":[-118.13180910953,34.156100147301]},"properties":{"id":533,"name":"Pasadena","st":"CA"}},{"type":"Feature","geometry":{"type":"Point","coordinates":[-118.155781598702,34.1129546453885]},"properties":{"id":534,"name":"South Pasadena","st":"CA"}},{"type":"Feature","geometry":{"type":"Point","coordinates":[-118.168654603974,34.0314636591476]},"properties":{"id":535,"name":"East Los Angeles","st":"CA"}},{"type":"Feature","geometry":{"type":"Point","coordinates":[-118.135054605766,34.0818631361206]},"properties":{"id":536,"name":"Alhambra","st":"CA"}},{"type":"Feature","geometry":{"type":"Point","coordinates":[-118.135563621593,34.0492001632865]},"properties":{"id":537,"name":"Monterey Park","st":"CA"}},{"type":"Feature","geometry":{"type":"Point","coordinates":[-118.112963618586,34.122654169257]},"properties":{"id":538,"name":"San Marino","st":"CA"}},{"type":"Feature","geometry":{"type":"Point","coordinates":[-117.860518617824,34.027735663529]},"properties":{"id":539,"name":"Walnut","st":"CA"}},{"type":"Feature","geometry":{"type":"Point","coordinates":[-117.928936622344,34.0377636666166]},"properties":{"id":540,"name":"Valinda","st":"CA"}},{"type":"Feature","geometry":{"type":"Point","coordinates":[-117.918618103926,34.0566631478717]},"properties":{"id":541,"name":"West Covina","st":"CA"}},{"type":"Feature","geometry":{"type":"Point","coordinates":[-117.924391112673,34.0985546342632]},"properties":{"id":542,"name":"Vincent","st":"CA"}},{"type":"Feature","geometry":{"type":"Point","coordinates":[-117.87919110666,34.0916091574276]},"properties":{"id":543,"name":"Covina","st":"CA"}},{"type":"Feature","geometry":{"type":"Point","coordinates":[-118.004572636134,34.0386091540605]},"properties":{"id":544,"name":"Avocado Heights","st":"CA"}},{"type":"Feature","geometry":{"type":"Point","coordinates":[-117.96978210369,34.0508361488131]},"properties":{"id":545,"name":"West Puente Valley","st":"CA"}},{"type":"Feature","geometry":{"type":"Point","coordinates":[-117.955191607086,34.0324086352917]},"properties":{"id":546,"name":"La Puente","st":"CA"}},{"type":"Feature","geometry":{"type":"Point","coordinates":[-117.97167259713,34.0828091529415]},"properties":{"id":547,"name":"Baldwin Park","st":"CA"}},{"type":"Feature","geometry":{"type":"Point","coordinates":[-118.001845605071,34.144154634804]},"properties":{"id":548,"name":"Monrovia","st":"CA"}},{"type":"Feature","geometry":{"type":"Point","coordinates":[-117.906872609507,34.1306546425859]},"properties":{"id":549,"name":"Azusa","st":"CA"}},{"type":"Feature","geometry":{"type":"Point","coordinates":[-117.891782130151,34.1148911367423]},"properties":{"id":550,"name":"Citrus","st":"CA"}},{"type":"Feature","geometry":{"type":"Point","coordinates":[-117.961681600508,34.1404181472629]},"properties":{"id":551,"name":"Duarte","st":"CA"}},{"type":"Feature","geometry":{"type":"Point","coordinates":[-117.854127114053,34.1309546488883]},"properties":{"id":552,"name":"Glendora","st":"CA"}},{"type":"Feature","geometry":{"type":"Point","coordinates":[-117.816245605061,34.102909158931]},"properties":{"id":553,"name":"San Dimas","st":"CA"}},{"type":"Feature","geometry":{"type":"Point","coordinates":[-117.71973611267,34.1100086559301]},"properties":{"id":554,"name":"Claremont","st":"CA"}},{"type":"Feature","geometry":{"type":"Point","coordinates":[-117.77134560535,34.1143631389708]},"properties":{"id":555,"name":"La Verne","st":"CA"}},{"type":"Feature","geometry":{"type":"Point","coordinates":[-117.697527612268,34.0709636702967]},"properties":{"id":556,"name":"Montclair","st":"CA"}},{"type":"Feature","geometry":{"type":"Point","coordinates":[-117.755881606284,34.0607636641508]},"properties":{"id":557,"name":"Pomona","st":"CA"}},{"type":"Feature","geometry":{"type":"Point","coordinates":[-117.994554623544,33.8023636610863]},"properties":{"id":558,"name":"Stanton","st":"CA"}},{"type":"Feature","geometry":{"type":"Point","coordinates":[-117.993927137072,33.7514176622951]},"properties":{"id":559,"name":"Westminster","st":"CA"}},{"type":"Feature","geometry":{"type":"Point","coordinates":[-117.889772624914,33.8361636357441]},"properties":{"id":560,"name":"Anaheim","st":"CA"}},{"type":"Feature","geometry":{"type":"Point","coordinates":[-117.960263615954,33.7787636509474]},"properties":{"id":561,"name":"Garden Grove","st":"CA"}},{"type":"Feature","geometry":{"type":"Point","coordinates":[-117.956291102919,33.7086181645987]},"properties":{"id":562,"name":"Fountain Valley","st":"CA"}},{"type":"Feature","geometry":{"type":"Point","coordinates":[-118.000191636649,33.6928911656966]},"properties":{"id":563,"name":"Huntington Beach","st":"CA"}},{"type":"Feature","geometry":{"type":"Point","coordinates":[-117.881409621422,33.7407181312943]},"properties":{"id":564,"name":"Santa Ana","st":"CA"}},{"type":"Feature","geometry":{"type":"Point","coordinates":[-117.88892713747,33.9233361344295]},"properties":{"id":565,"name":"Brea","st":"CA"}},{"type":"Feature","geometry":{"type":"Point","coordinates":[-118.00417259998,33.8562181433447]},"properties":{"id":566,"name":"Buena Park","st":"CA"}},{"type":"Feature","geometry":{"type":"Point","coordinates":[-118.009663626946,33.9021271416353]},"properties":{"id":567,"name":"La Mirada","st":"CA"}},{"type":"Feature","geometry":{"type":"Point","coordinates":[-117.969436598998,34.0005811594044]},"properties":{"id":568,"name":"Hacienda Heights","st":"CA"}},{"type":"Feature","geometry":{"type":"Point","coordinates":[-118.024491106466,33.9656636643923]},"properties":{"id":569,"name":"Whittier","st":"CA"}},{"type":"Feature","geometry":{"type":"Point","coordinates":[-117.951718119381,33.929309161254]},"properties":{"id":570,"name":"La Habra","st":"CA"}},{"type":"Feature","geometry":{"type":"Point","coordinates":[-117.889791107334,33.9809636527976]},"properties":{"id":571,"name":"Rowland Heights","st":"CA"}},{"type":"Feature","geometry":{"type":"Point","coordinates":[-117.904846120425,34.011263664933]},"properties":{"id":572,"name":"South San Jose Hills","st":"CA"}},{"type":"Feature","geometry":{"type":"Point","coordinates":[-117.928745637341,33.8799181417087]},"properties":{"id":573,"name":"Fullerton","st":"CA"}},{"type":"Feature","geometry":{"type":"Point","coordinates":[-117.820764098762,34.0016546383174]},"properties":{"id":574,"name":"Diamond Bar","st":"CA"}},{"type":"Feature","geometry":{"type":"Point","coordinates":[-117.85512762071,33.8823636488897]},"properties":{"id":575,"name":"Placentia","st":"CA"}},{"type":"Feature","geometry":{"type":"Point","coordinates":[-117.6899916138,34.0177636488522]},"properties":{"id":576,"name":"Chino","st":"CA"}},{"type":"Feature","geometry":{"type":"Point","coordinates":[-117.723054622789,33.9752636579334]},"properties":{"id":577,"name":"Chino Hills","st":"CA"}},{"type":"Feature","geometry":{"type":"Point","coordinates":[-117.789091100936,33.8860181311005]},"properties":{"id":578,"name":"Yorba Linda","st":"CA"}},{"type":"Feature","geometry":{"type":"Point","coordinates":[-117.832509135284,33.8029456491692]},"properties":{"id":579,"name":"Orange","st":"CA"}},{"type":"Feature","geometry":{"type":"Point","coordinates":[-117.799263633215,33.7651181304882]},"properties":{"id":580,"name":"Tustin Foothills","st":"CA"}},{"type":"Feature","geometry":{"type":"Point","coordinates":[-117.792581614113,33.6840636457163]},"properties":{"id":581,"name":"Irvine","st":"CA"}},{"type":"Feature","geometry":{"type":"Point","coordinates":[-117.813536098994,33.7396181359369]},"properties":{"id":582,"name":"Tustin","st":"CA"}},{"type":"Feature","geometry":{"type":"Point","coordinates":[-119.02753609915,36.0685546565308]},"properties":{"id":583,"name":"Porterville","st":"CA"}},{"type":"Feature","geometry":{"type":"Point","coordinates":[-118.83219111851,35.2046361608533]},"properties":{"id":584,"name":"Arvin","st":"CA"}},{"type":"Feature","geometry":{"type":"Point","coordinates":[-119.031663631399,35.3572726405751]},"properties":{"id":585,"name":"Bakersfield","st":"CA"}},{"type":"Feature","geometry":{"type":"Point","coordinates":[-118.913318617165,35.2611001609533]},"properties":{"id":586,"name":"Lamont","st":"CA"}},{"type":"Feature","geometry":{"type":"Point","coordinates":[-119.028863628079,35.419954143289]},"properties":{"id":587,"name":"Oildale","st":"CA"}},{"type":"Feature","geometry":{"type":"Point","coordinates":[-118.448900119378,35.1285546541465]},"properties":{"id":588,"name":"Tehachapi","st":"CA"}},{"type":"Feature","geometry":{"type":"Point","coordinates":[-117.675745622839,35.6209361370349]},"properties":{"id":589,"name":"Ridgecrest","st":"CA"}},{"type":"Feature","geometry":{"type":"Point","coordinates":[-117.034818102756,34.8762636319212]},"properties":{"id":590,"name":"Barstow","st":"CA"}},{"type":"Feature","geometry":{"type":"Point","coordinates":[-117.43270913109,34.5759906665119]},"properties":{"id":591,"name":"Adelanto","st":"CA"}},{"type":"Feature","geometry":{"type":"Point","coordinates":[-117.21200910136,34.5114816521167]},"properties":{"id":592,"name":"Apple Valley","st":"CA"}},{"type":"Feature","geometry":{"type":"Point","coordinates":[-117.306191099317,34.4128996311035]},"properties":{"id":593,"name":"Hesperia","st":"CA"}},{"type":"Feature","geometry":{"type":"Point","coordinates":[-117.3445271343,34.5204636501583]},"properties":{"id":594,"name":"Victorville","st":"CA"}},{"type":"Feature","geometry":{"type":"Point","coordinates":[-117.579400599006,34.1233451370124]},"properties":{"id":595,"name":"Rancho Cucamonga","st":"CA"}},{"type":"Feature","geometry":{"type":"Point","coordinates":[-117.658381597733,34.1132636431383]},"properties":{"id":596,"name":"Upland","st":"CA"}},{"type":"Feature","geometry":{"type":"Point","coordinates":[-117.627863626253,34.0528091471085]},"properties":{"id":597,"name":"Ontario","st":"CA"}},{"type":"Feature","geometry":{"type":"Point","coordinates":[-117.3216911058,34.0649456446083]},"properties":{"id":598,"name":"Colton","st":"CA"}},{"type":"Feature","geometry":{"type":"Point","coordinates":[-117.39872712125,34.0594631511912]},"properties":{"id":599,"name":"Bloomington","st":"CA"}},{"type":"Feature","geometry":{"type":"Point","coordinates":[-117.458218616614,34.0977456537608]},"properties":{"id":600,"name":"Fontana","st":"CA"}},{"type":"Feature","geometry":{"type":"Point","coordinates":[-117.382400109743,34.1113636587259]},"properties":{"id":601,"name":"Rialto","st":"CA"}},{"type":"Feature","geometry":{"type":"Point","coordinates":[-117.567781609256,33.8700001589704]},"properties":{"id":602,"name":"Corona","st":"CA"}},{"type":"Feature","geometry":{"type":"Point","coordinates":[-117.515209115911,33.9846086440362]},"properties":{"id":603,"name":"Mira Loma","st":"CA"}},{"type":"Feature","geometry":{"type":"Point","coordinates":[-117.561327123726,33.927127153434]},"properties":{"id":604,"name":"Norco","st":"CA"}},{"type":"Feature","geometry":{"type":"Point","coordinates":[-117.491855121763,34.0173086649637]},"properties":{"id":605,"name":"Glen Avon","st":"CA"}},{"type":"Feature","geometry":{"type":"Point","coordinates":[-117.469355106981,33.9779726644752]},"properties":{"id":606,"name":"Pedley","st":"CA"}},{"type":"Feature","geometry":{"type":"Point","coordinates":[-117.396127136008,33.9480636554199]},"properties":{"id":607,"name":"Riverside","st":"CA"}},{"type":"Feature","geometry":{"type":"Point","coordinates":[-117.418264121101,33.9958181482866]},"properties":{"id":608,"name":"Rubidoux","st":"CA"}},{"type":"Feature","geometry":{"type":"Point","coordinates":[-117.664281610675,33.6885266505317]},"properties":{"id":609,"name":"Foothill Ranch","st":"CA"}},{"type":"Feature","geometry":{"type":"Point","coordinates":[-117.345327123355,33.6813816551438]},"properties":{"id":610,"name":"Lake Elsinore","st":"CA"}},{"type":"Feature","geometry":{"type":"Point","coordinates":[-117.202372600878,34.1184636552499]},"properties":{"id":611,"name":"Highland","st":"CA"}},{"type":"Feature","geometry":{"type":"Point","coordinates":[-117.29314563309,34.1295086493148]},"properties":{"id":612,"name":"San Bernardino","st":"CA"}},{"type":"Feature","geometry":{"type":"Point","coordinates":[-117.316681620793,34.0310181662313]},"properties":{"id":613,"name":"Grand Terrace","st":"CA"}},{"type":"Feature","geometry":{"type":"Point","coordinates":[-117.250645600544,34.0483636672901]},"properties":{"id":614,"name":"Loma Linda","st":"CA"}},{"type":"Feature","geometry":{"type":"Point","coordinates":[-117.289900136854,34.2424541328847]},"properties":{"id":615,"name":"Crestline","st":"CA"}},{"type":"Feature","geometry":{"type":"Point","coordinates":[-117.171445601795,34.0565636591714]},"properties":{"id":616,"name":"Redlands","st":"CA"}},{"type":"Feature","geometry":{"type":"Point","coordinates":[-117.048609609354,34.0302726670125]},"properties":{"id":617,"name":"Yucaipa","st":"CA"}},{"type":"Feature","geometry":{"type":"Point","coordinates":[-117.22834560384,33.9262636414683]},"properties":{"id":618,"name":"Moreno Valley","st":"CA"}},{"type":"Feature","geometry":{"type":"Point","coordinates":[-117.224382123879,33.7965726694444]},"properties":{"id":619,"name":"Perris","st":"CA"}},{"type":"Feature","geometry":{"type":"Point","coordinates":[-116.973736120255,33.9240911662476]},"properties":{"id":620,"name":"Beaumont","st":"CA"}},{"type":"Feature","geometry":{"type":"Point","coordinates":[-116.983063622987,33.7420001618342]},"properties":{"id":621,"name":"Hemet","st":"CA"}},{"type":"Feature","geometry":{"type":"Point","coordinates":[-117.199155119661,33.7082911423271]},"properties":{"id":622,"name":"Sun City","st":"CA"}},{"type":"Feature","geometry":{"type":"Point","coordinates":[-116.897554625323,33.9317271529408]},"properties":{"id":623,"name":"Banning","st":"CA"}},{"type":"Feature","geometry":{"type":"Point","coordinates":[-116.966672630672,33.7871181625172]},"properties":{"id":624,"name":"San Jacinto","st":"CA"}},{"type":"Feature","geometry":{"type":"Point","coordinates":[-116.8981545963,33.7528181634797]},"properties":{"id":625,"name":"Valle Vista","st":"CA"}},{"type":"Feature","geometry":{"type":"Point","coordinates":[-116.416463611338,34.1260451521068]},"properties":{"id":626,"name":"Yucca Valley","st":"CA"}},{"type":"Feature","geometry":{"type":"Point","coordinates":[-116.940309124155,33.7361181317875]},"properties":{"id":627,"name":"East Hemet","st":"CA"}},{"type":"Feature","geometry":{"type":"Point","coordinates":[-116.464727619557,33.8077636496481]},"properties":{"id":628,"name":"Cathedral City","st":"CA"}},{"type":"Feature","geometry":{"type":"Point","coordinates":[-116.50807309792,33.9610001419747]},"properties":{"id":629,"name":"Desert Hot Springs","st":"CA"}},{"type":"Feature","geometry":{"type":"Point","coordinates":[-116.530336129785,33.8239911308277]},"properties":{"id":630,"name":"Palm Springs","st":"CA"}},{"type":"Feature","geometry":{"type":"Point","coordinates":[-116.42104562795,33.7692271386898]},"properties":{"id":631,"name":"Rancho Mirage","st":"CA"}},{"type":"Feature","geometry":{"type":"Point","coordinates":[-116.297391122408,33.6753726625298]},"properties":{"id":632,"name":"La Quinta","st":"CA"}},{"type":"Feature","geometry":{"type":"Point","coordinates":[-116.369445626243,33.7255451470833]},"properties":{"id":633,"name":"Palm Desert","st":"CA"}},{"type":"Feature","geometry":{"type":"Point","coordinates":[-116.012072599085,36.2086721692223]},"properties":{"id":634,"name":"Pahrump","st":"NV"}},{"type":"Feature","geometry":{"type":"Point","coordinates":[-116.072409123995,34.1382726463844]},"properties":{"id":635,"name":"Twentynine Palms","st":"CA"}},{"type":"Feature","geometry":{"type":"Point","coordinates":[-114.588654629435,35.1156451419339]},"properties":{"id":636,"name":"Bullhead City","st":"AZ"}},{"type":"Feature","geometry":{"type":"Point","coordinates":[-114.584609102517,34.95692715524]},"properties":{"id":637,"name":"Mohave Valley","st":"AZ"}},{"type":"Feature","geometry":{"type":"Point","coordinates":[-114.025727124518,35.2084451627526]},"properties":{"id":638,"name":"Kingman","st":"AZ"}},{"type":"Feature","geometry":{"type":"Point","coordinates":[-114.309018118082,34.4899726530201]},"properties":{"id":639,"name":"Lake Havasu City","st":"AZ"}},{"type":"Feature","geometry":{"type":"Point","coordinates":[-114.020473122095,35.255054161873]},"properties":{"id":640,"name":"New Kingman-Butler","st":"AZ"}},{"type":"Feature","geometry":{"type":"Point","coordinates":[-116.174491107531,33.6795181360458]},"properties":{"id":641,"name":"Coachella","st":"CA"}},{"type":"Feature","geometry":{"type":"Point","coordinates":[-116.231891133955,33.7198726677132]},"properties":{"id":642,"name":"Indio","st":"CA"}},{"type":"Feature","geometry":{"type":"Point","coordinates":[-114.885445615216,35.940127149373]},"properties":{"id":643,"name":"Boulder City","st":"NV"}},{"type":"Feature","geometry":{"type":"Point","coordinates":[-115.025281604025,36.0292456720116]},"properties":{"id":644,"name":"Henderson","st":"NV"}},{"type":"Feature","geometry":{"type":"Point","coordinates":[-115.124654622646,36.0820726732707]},"properties":{"id":645,"name":"Paradise","st":"NV"}},{"type":"Feature","geometry":{"type":"Point","coordinates":[-115.059709106782,36.175445149573]},"properties":{"id":646,"name":"Sunrise Manor","st":"NV"}},{"type":"Feature","geometry":{"type":"Point","coordinates":[-115.04429110563,36.0964726427689]},"properties":{"id":647,"name":"Whitney","st":"NV"}},{"type":"Feature","geometry":{"type":"Point","coordinates":[-115.120854612194,36.1359721543931]},"properties":{"id":648,"name":"Winchester","st":"NV"}},{"type":"Feature","geometry":{"type":"Point","coordinates":[-115.198100095067,36.0314636456212]},"properties":{"id":649,"name":"Enterprise","st":"NV"}},{"type":"Feature","geometry":{"type":"Point","coordinates":[-115.222063634419,36.1941631367975]},"properties":{"id":650,"name":"Las Vegas","st":"NV"}},{"type":"Feature","geometry":{"type":"Point","coordinates":[-115.146591131764,36.2285091337486]},"properties":{"id":651,"name":"North Las Vegas","st":"NV"}},{"type":"Feature","geometry":{"type":"Point","coordinates":[-115.250200121154,36.1125181720201]},"properties":{"id":652,"name":"Spring Valley","st":"NV"}},{"type":"Feature","geometry":{"type":"Point","coordinates":[-115.536272635617,32.9770361662034]},"properties":{"id":653,"name":"Brawley","st":"CA"}},{"type":"Feature","geometry":{"type":"Point","coordinates":[-115.498000123545,32.6782451661571]},"properties":{"id":654,"name":"Calexico","st":"CA"}},{"type":"Feature","geometry":{"type":"Point","coordinates":[-115.557963628269,32.7881361384939]},"properties":{"id":655,"name":"El Centro","st":"CA"}},{"type":"Feature","geometry":{"type":"Point","coordinates":[-114.411809093895,32.6577091582235]},"properties":{"id":656,"name":"Fortuna Foothills","st":"AZ"}},{"type":"Feature","geometry":{"type":"Point","coordinates":[-114.768327101009,32.4961181543271]},"properties":{"id":657,"name":"San Luis","st":"AZ"}},{"type":"Feature","geometry":{"type":"Point","coordinates":[-114.615391614035,32.6921456524276]},"properties":{"id":658,"name":"Yuma","st":"AZ"}},{"type":"Feature","geometry":{"type":"Point","coordinates":[-114.589236617518,33.6171546641562]},"properties":{"id":659,"name":"Blythe","st":"CA"}},{"type":"Feature","geometry":{"type":"Point","coordinates":[-111.000072609755,31.8556181442664]},"properties":{"id":660,"name":"Green Valley","st":"AZ"}},{"type":"Feature","geometry":{"type":"Point","coordinates":[-110.939218119197,31.3540091468703]},